"","id","Region","Comuna","Poblacion","Tasa","address","address2","empty_address","FormattedAddress","lat","lon","date","n"
"1",1,"Arica y Parinacota","Arica",247552,25.4,"Arica, Region de Arica y Parinacota, Chile","Arica,+Region+de+Arica+y+Parinacota,+Chile",0,"Arica, Arica y Parinacota, Chile",-18.4782534,-70.3125988,"03/30/2020",6
"2",2,"Arica y Parinacota","Camarones",1233,0,"Camarones, Region de Arica y Parinacota, Chile","Camarones,+Region+de+Arica+y+Parinacota,+Chile",0,"Camarones, Arica y Parinacota, Chile",-19.0111932,-69.8654656,"03/30/2020",NA
"3",3,"Arica y Parinacota","General Lagos",810,0,"General Lagos, Region de Arica y Parinacota, Chile","General+Lagos,+Region+de+Arica+y+Parinacota,+Chile",0,"General Lagos, Gral. Lagos, Arica y Parinacota, Chile",-17.866667,-69.583333,"03/30/2020",NA
"4",4,"Arica y Parinacota","Putre",2515,0,"Putre, Region de Arica y Parinacota, Chile","Putre,+Region+de+Arica+y+Parinacota,+Chile",0,"Putre, Arica y Parinacota, Chile",-18.1969907,-69.5597273,"03/30/2020",NA
"5",5,"Tarapaca","Alto Hospicio",129999,4.6,"Alto Hospicio, Region de Tarapaca, Chile","Alto+Hospicio,+Region+de+Tarapaca,+Chile",0,"Alto Hospicio, Tarapacá, Chile",-20.2686722,-70.1049169,"03/30/2020",NA
"6",6,"Tarapaca","Camina",1375,0,"Camina, Region de Tarapaca, Chile","Camina,+Region+de+Tarapaca,+Chile",0,"Camiña, Tarapacá, Chile",-19.3116281,-69.4298687,"03/30/2020",NA
"7",7,"Tarapaca","Colchane",1583,0,"Colchane, Region de Tarapaca, Chile","Colchane,+Region+de+Tarapaca,+Chile",0,"Colchane, Tarapacá, Chile",-19.2761393,-68.6388049,"03/30/2020",NA
"8",8,"Tarapaca","Huara",3000,0,"Huara, Region de Tarapaca, Chile","Huara,+Region+de+Tarapaca,+Chile",0,"Huara, Tarapacá, Chile",-19.9972461,-69.7718515,"03/30/2020",NA
"9",9,"Tarapaca","Iquique",223463,7.2,"Iquique, Region de Tarapaca, Chile","Iquique,+Region+de+Tarapaca,+Chile",0,"Iquique, Tarapacá, Chile",-20.2307033,-70.1356692,"03/30/2020",5
"10",10,"Tarapaca","Pica",5958,33.6,"Pica, Region de Tarapaca, Chile","Pica,+Region+de+Tarapaca,+Chile",0,"Pica, Tarapacá, Chile",-20.489483,-69.330511,"03/30/2020",NA
"11",11,"Tarapaca","Pozo Almonte",17395,11.5,"Pozo Almonte, Region de Tarapaca, Chile","Pozo+Almonte,+Region+de+Tarapaca,+Chile",0,"Pozo Almonte, Tarapacá, Chile",-20.2567092,-69.7860128,"03/30/2020",NA
"12",12,"Antofagasta","Antofagasta",425725,14.1,"Antofagasta, Region de Antofagasta, Chile","Antofagasta,+Region+de+Antofagasta,+Chile",0,"Antofagasta, Chile",-23.6509279,-70.3975022,"03/30/2020",29
"13",13,"Antofagasta","Calama",190336,4.2,"Calama, Region de Antofagasta, Chile","Calama,+Region+de+Antofagasta,+Chile",0,"Calama, Antofagasta, Chile",-22.4543923,-68.9293819,"03/30/2020",NA
"14",14,"Antofagasta","Maria Elena",6814,0,"Maria Elena, Region de Antofagasta, Chile","Maria+Elena,+Region+de+Antofagasta,+Chile",0,"María Elena, Maria Elena, Antofagasta, Chile",-22.166667,-69.416667,"03/30/2020",NA
"15",15,"Antofagasta","Mejillones",14776,13.5,"Mejillones, Region de Antofagasta, Chile","Mejillones,+Region+de+Antofagasta,+Chile",0,"Mejillones, Antofagasta, Chile",-23.0985013,-70.4455041,"03/30/2020",NA
"16",16,"Antofagasta","Ollague",287,0,"Ollague, Region de Antofagasta, Chile","Ollague,+Region+de+Antofagasta,+Chile",0,"Ollagüe, Ollague, Antofagasta, Chile",-21.2256917,-68.2547802,"03/30/2020",NA
"17",17,"Antofagasta","San Pedro de Atacama",10434,38.3,"San Pedro de Atacama, Region de Antofagasta, Chile","San+Pedro+de+Atacama,+Region+de+Antofagasta,+Chile",0,"San Pedro de Atacama, Antofagasta, Chile",-22.9087073,-68.1997156,"03/30/2020",NA
"18",18,"Antofagasta","Sierra Gorda",1746,0,"Sierra Gorda, Region de Antofagasta, Chile","Sierra+Gorda,+Region+de+Antofagasta,+Chile",0,"Sierra Gorda, Antofagasta, Chile",-22.8860128,-69.3171995,"03/30/2020",NA
"19",19,"Antofagasta","Taltal",13657,7.3,"Taltal, Region de Antofagasta, Chile","Taltal,+Region+de+Antofagasta,+Chile",0,"Taltal, Antofagasta, Chile",-25.406494,-70.4803027,"03/30/2020",NA
"20",20,"Antofagasta","Tocopilla",28079,7.1,"Tocopilla, Region de Antofagasta, Chile","Tocopilla,+Region+de+Antofagasta,+Chile",0,"Tocopilla, Antofagasta, Chile",-22.0857976,-70.1930064,"03/30/2020",NA
"21",21,"Atacama","Alto del Carmen",5729,0,"Alto del Carmen, Region de Atacama, Chile","Alto+del+Carmen,+Region+de+Atacama,+Chile",0,"Alto del Carmen, Atacama, Chile",-28.759444,-70.486667,"03/30/2020",NA
"22",22,"Atacama","Caldera",19426,0,"Caldera, Region de Atacama, Chile","Caldera,+Region+de+Atacama,+Chile",0,"Caldera, Atacama, Chile",-27.0667,-70.8178142,"03/30/2020",NA
"23",23,"Atacama","Chanaral",13164,0,"Chanaral, Region de Atacama, Chile","Chanaral,+Region+de+Atacama,+Chile",0,"Chañaral, Atacama, Chile",-26.3450046,-70.624193,"03/30/2020",NA
"24",24,"Atacama","Copiapo",171766,2.9,"Copiapo, Region de Atacama, Chile","Copiapo,+Region+de+Atacama,+Chile",0,"Copiapó, Copiapo, Atacama, Chile",-27.3665763,-70.3321587,"03/30/2020",NA
"25",25,"Atacama","Diego de Almagro",14358,7,"Diego de Almagro, Region de Atacama, Chile","Diego+de+Almagro,+Region+de+Atacama,+Chile",0,"Diego de Almagro, Atacama, Chile",-26.3902488,-70.0475302,"03/30/2020",NA
"26",26,"Atacama","Freirina",7681,0,"Freirina, Region de Atacama, Chile","Freirina,+Region+de+Atacama,+Chile",0,"Freirina, Atacama, Chile",-28.512094,-71.0795967,"03/30/2020",NA
"27",27,"Atacama","Huasco",11264,0,"Huasco, Region de Atacama, Chile","Huasco,+Region+de+Atacama,+Chile",0,"Huasco, Atacama, Chile",-28.4664,-71.2192,"03/30/2020",NA
"28",28,"Atacama","Tierra Amarilla",14312,14,"Tierra Amarilla, Region de Atacama, Chile","Tierra+Amarilla,+Region+de+Atacama,+Chile",0,"Tierra Amarilla, Atacama, Chile",-27.4671706,-70.2652196,"03/30/2020",NA
"29",29,"Atacama","Vallenar",57009,0,"Vallenar, Region de Atacama, Chile","Vallenar,+Region+de+Atacama,+Chile",0,"Vallenar, Atacama, Chile",-28.5757953,-70.7571009,"03/30/2020",NA
"30",30,"Coquimbo","Andacollo",11791,0,"Andacollo, Region de Coquimbo, Chile","Andacollo,+Region+de+Coquimbo,+Chile",0,"Andacollo, Coquimbo, Chile",-30.2357949,-71.0828027,"03/30/2020",NA
"31",31,"Coquimbo","Canela",9546,0,"Canela, Region de Coquimbo, Chile","Canela,+Region+de+Coquimbo,+Chile",0,"Canela, Coquimbo, Chile",-31.398889,-71.456111,"03/30/2020",NA
"32",32,"Coquimbo","Combarbala",13884,0,"Combarbala, Region de Coquimbo, Chile","Combarbala,+Region+de+Coquimbo,+Chile",0,"Combarbalá, Combarbala, Coquimbo, Chile",-31.1790967,-71.0050958,"03/30/2020",NA
"33",33,"Coquimbo","Coquimbo",256735,7.4,"Coquimbo, Region de Coquimbo, Chile","Coquimbo,+Region+de+Coquimbo,+Chile",0,"Coquimbo, Chile",-29.9590009,-71.3389183,"03/30/2020",17
"34",34,"Coquimbo","Illapel",32801,36.6,"Illapel, Region de Coquimbo, Chile","Illapel,+Region+de+Coquimbo,+Chile",0,"Illapel, Coquimbo, Chile",-31.6308,-71.1653,"03/30/2020",NA
"35",35,"Coquimbo","La Higuera",4450,0,"La Higuera, Region de Coquimbo, Chile","La+Higuera,+Region+de+Coquimbo,+Chile",0,"La Higuera, Coquimbo, Chile",-29.5119534,-71.2000844,"03/30/2020",NA
"36",36,"Coquimbo","La Serena",249656,4.8,"La Serena, Region de Coquimbo, Chile","La+Serena,+Region+de+Coquimbo,+Chile",0,"La Serena, Coquimbo, Chile",-29.9026691,-71.2519374,"03/30/2020",NA
"37",37,"Coquimbo","Los Vilos",23374,4.3,"Los Vilos, Region de Coquimbo, Chile","Los+Vilos,+Region+de+Coquimbo,+Chile",0,"Los Vilos, Coquimbo, Chile",-31.9121865,-71.5112017,"03/30/2020",NA
"38",38,"Coquimbo","Monte Patria",32527,0,"Monte Patria, Region de Coquimbo, Chile","Monte+Patria,+Region+de+Coquimbo,+Chile",0,"Monte Patria, Coquimbo, Chile",-30.6978944,-70.9586889,"03/30/2020",NA
"39",39,"Coquimbo","Ovalle",121269,5.8,"Ovalle, Region de Coquimbo, Chile","Ovalle,+Region+de+Coquimbo,+Chile",0,"Ovalle, Coquimbo, Chile",-30.604304,-71.1969882,"03/30/2020",4
"40",40,"Coquimbo","Paiguano",4675,0,"Paiguano, Region de Coquimbo, Chile","Paiguano,+Region+de+Coquimbo,+Chile",0,"Paiguano, Coquimbo, Chile",-30.0276898,-70.5178142,"03/30/2020",NA
"41",41,"Coquimbo","Punitaqui",12165,0,"Punitaqui, Region de Coquimbo, Chile","Punitaqui,+Region+de+Coquimbo,+Chile",0,"Punitaqui, Coquimbo, Chile",-30.8277456,-71.2603821,"03/30/2020",NA
"42",42,"Coquimbo","Rio Hurtado",4372,22.9,"Rio Hurtado, Region de Coquimbo, Chile","Rio+Hurtado,+Region+de+Coquimbo,+Chile",0,"Río Hurtado, Coquimbo, Chile",-30.266667,-70.666667,"03/30/2020",NA
"43",43,"Coquimbo","Salamanca",29110,13.7,"Salamanca, Region de Coquimbo, Chile","Salamanca,+Region+de+Coquimbo,+Chile",0,"Salamanca, Coquimbo, Chile",-31.782493,-70.9607105,"03/30/2020",NA
"44",44,"Coquimbo","Vicuna",29741,0,"Vicuna, Region de Coquimbo, Chile","Vicuna,+Region+de+Coquimbo,+Chile",0,"Vicuña, Coquimbo, Chile",-30.0319,-70.7081,"03/30/2020",NA
"45",45,"Valparaiso","Algarrobo",15174,52.7,"Algarrobo, Region de Valparaiso, Chile","Algarrobo,+Region+de+Valparaiso,+Chile",0,"Algarrobo, Valparaíso, Chile",-33.3647762,-71.6705534,"03/30/2020",7
"46",46,"Valparaiso","Cabildo",20663,0,"Cabildo, Region de Valparaiso, Chile","Cabildo,+Region+de+Valparaiso,+Chile",0,"Cabildo, Valparaíso, Chile",-32.4258064,-71.0661621,"03/30/2020",NA
"47",47,"Valparaiso","Calera",53591,16.8,"Calera, Region de Valparaiso, Chile","Calera,+Region+de+Valparaiso,+Chile",0,"La Calera, Calera, Valparaíso, Chile",-32.7873428,-71.20732,"03/30/2020",6
"48",48,"Valparaiso","Calle Larga",16482,6.1,"Calle Larga, Region de Valparaiso, Chile","Calle+Larga,+Region+de+Valparaiso,+Chile",0,"Calle Larga, Valparaíso, Chile",-32.857493,-70.6258069,"03/30/2020",NA
"49",49,"Valparaiso","Cartagena",25357,0,"Cartagena, Region de Valparaiso, Chile","Cartagena,+Region+de+Valparaiso,+Chile",0,"Cartagena, Valparaíso, Chile",-33.5482466,-71.6045745,"03/30/2020",NA
"50",50,"Valparaiso","Casablanca",29170,6.9,"Casablanca, Region de Valparaiso, Chile","Casablanca,+Region+de+Valparaiso,+Chile",0,"Casablanca, Valparaíso, Chile",-33.3182828,-71.4070899,"03/30/2020",NA
"51",51,"Valparaiso","Catemu",15213,0,"Catemu, Region de Valparaiso, Chile","Catemu,+Region+de+Valparaiso,+Chile",0,"Catemu, Calle Larga, Valparaíso, Chile",-32.875133,-70.648829,"03/30/2020",NA
"52",52,"Valparaiso","Concon",45889,6.5,"Concon, Region de Valparaiso, Chile","Concon,+Region+de+Valparaiso,+Chile",0,"Concón, Valparaíso, Chile",-32.9299468,-71.5186065,"03/30/2020",NA
"53",53,"Valparaiso","El Quisco",17742,5.6,"El Quisco, Region de Valparaiso, Chile","El+Quisco,+Region+de+Valparaiso,+Chile",0,"El Quisco, Valparaíso, Chile",-33.398596,-71.6981538,"03/30/2020",NA
"54",54,"Valparaiso","El Tabo",14338,13.9,"El Tabo, Region de Valparaiso, Chile","El+Tabo,+Region+de+Valparaiso,+Chile",0,"El Tabo, Valparaíso, Chile",-33.4557162,-71.6669341,"03/30/2020",NA
"55",55,"Valparaiso","Hijuelas",19099,0,"Hijuelas, Region de Valparaiso, Chile","Hijuelas,+Region+de+Valparaiso,+Chile",0,"Hijuelas, Valparaíso, Chile",-32.7986559,-71.1463438,"03/30/2020",NA
"56",56,"Valparaiso","Isla de Pascua",8277,60.4,"Isla de Pascua, Region de Valparaiso, Chile","Isla+de+Pascua,+Region+de+Valparaiso,+Chile",0,"Easter Island, Valparaíso, Chile",-27.112723,-109.3496865,"03/30/2020",NA
"57",57,"Valparaiso","Juan Fernandez",1033,0,"Juan Fernandez, Region de Valparaiso, Chile","Juan+Fernandez,+Region+de+Valparaiso,+Chile",0,"Juan Fernández Islands, Valparaíso, Chile",-30.0447611,-79.8036832,"03/30/2020",NA
"58",58,"Valparaiso","La Cruz",25321,7.9,"La Cruz, Region de Valparaiso, Chile","La+Cruz,+Region+de+Valparaiso,+Chile",0,"La Cruz, Valparaíso, Chile",-32.8258069,-71.2273055,"03/30/2020",NA
"59",59,"Valparaiso","La Ligua",37739,5.3,"La Ligua, Region de Valparaiso, Chile","La+Ligua,+Region+de+Valparaiso,+Chile",0,"La Ligua, Valparaíso, Chile",-32.4499018,-71.2325958,"03/30/2020",NA
"60",60,"Valparaiso","Limache",49931,10,"Limache, Region de Valparaiso, Chile","Limache,+Region+de+Valparaiso,+Chile",0,"Limache, Valparaíso, Chile",-33.0012816,-71.268144,"03/30/2020",NA
"61",61,"Valparaiso","Llaillay",26533,7.5,"Llaillay, Region de Valparaiso, Chile","Llaillay,+Region+de+Valparaiso,+Chile",0,"Llay-Llay, Llayllay, Valparaíso, Chile",-32.8409806,-70.956166,"03/30/2020",NA
"62",62,"Valparaiso","Los Andes",68093,8.8,"Los Andes, Region de Valparaiso, Chile","Los+Andes,+Region+de+Valparaiso,+Chile",0,"Los Andes, Valparaíso, Chile",-32.8337995,-70.5972179,"03/30/2020",NA
"63",63,"Valparaiso","Nogales",23490,0,"Nogales, Region de Valparaiso, Chile","Nogales,+Region+de+Valparaiso,+Chile",0,"Nogales, Valparaíso, Chile",-32.7333,-71.2042115,"03/30/2020",NA
"64",64,"Valparaiso","Olmue",19266,0,"Olmue, Region de Valparaiso, Chile","Olmue,+Region+de+Valparaiso,+Chile",0,"Olmué, Olmue, Valparaíso, Chile",-32.9958297,-71.1812984,"03/30/2020",NA
"65",65,"Valparaiso","Panquehue",7633,0,"Panquehue, Region de Valparaiso, Chile","Panquehue,+Region+de+Valparaiso,+Chile",0,"Panquehue, Valparaíso, Chile",-32.7670303,-70.8333,"03/30/2020",NA
"66",66,"Valparaiso","Papudo",6201,0,"Papudo, Region de Valparaiso, Chile","Papudo,+Region+de+Valparaiso,+Chile",0,"Papudo, Valparaíso, Chile",-32.5072087,-71.4485013,"03/30/2020",NA
"67",67,"Valparaiso","Petorca",10558,37.9,"Petorca, Region de Valparaiso, Chile","Petorca,+Region+de+Valparaiso,+Chile",0,"Petorca, Valparaíso, Chile",-32.25,-70.9333,"03/30/2020",NA
"68",68,"Valparaiso","Puchuncavi",20071,0,"Puchuncavi, Region de Valparaiso, Chile","Puchuncavi,+Region+de+Valparaiso,+Chile",0,"Puchuncaví, Puchuncavi, Valparaíso, Chile",-32.722005,-71.4117004,"03/30/2020",NA
"69",69,"Valparaiso","Putaendo",17645,5.7,"Putaendo, Region de Valparaiso, Chile","Putaendo,+Region+de+Valparaiso,+Chile",0,"Putaendo, Valparaíso, Chile",-32.628461,-70.7177434,"03/30/2020",NA
"70",70,"Valparaiso","Quillota",97572,13.3,"Quillota, Region de Valparaiso, Chile","Quillota,+Region+de+Valparaiso,+Chile",0,"Quillota, Valparaíso, Chile",-32.8803027,-71.2497156,"03/30/2020",6
"71",71,"Valparaiso","Quilpue",167085,9,"Quilpue, Region de Valparaiso, Chile","Quilpue,+Region+de+Valparaiso,+Chile",0,"Quilpué, Quilpue, Valparaíso, Chile",-33.0482707,-71.4408752,"03/30/2020",11
"72",72,"Valparaiso","Quintero",36135,8.3,"Quintero, Region de Valparaiso, Chile","Quintero,+Region+de+Valparaiso,+Chile",0,"Quintero, Valparaíso, Chile",-32.7723101,-71.5333,"03/30/2020",NA
"73",73,"Valparaiso","Rinconada",11263,8.9,"Rinconada, Region de Valparaiso, Chile","Rinconada,+Region+de+Valparaiso,+Chile",0,"Rinconada, Valparaíso, Chile",-32.8352416,-70.7010367,"03/30/2020",NA
"74",74,"Valparaiso","San Antonio",96761,9.3,"San Antonio, Region de Valparaiso, Chile","San+Antonio,+Region+de+Valparaiso,+Chile",0,"San Antonio, Valparaíso, Chile",-33.5922807,-71.6055123,"03/30/2020",NA
"75",75,"Valparaiso","San Esteban",20643,0,"San Esteban, Region de Valparaiso, Chile","San+Esteban,+Region+de+Valparaiso,+Chile",0,"San Esteban, Valparaíso, Chile",-32.8004995,-70.5798032,"03/30/2020",NA
"76",76,"Valparaiso","San Felipe",83494,7.2,"San Felipe, Region de Valparaiso, Chile","San+Felipe,+Region+de+Valparaiso,+Chile",0,"San Felipe, Valparaíso, Chile",-32.75,-70.7208115,"03/30/2020",NA
"77",77,"Valparaiso","Santa Maria",16367,12.2,"Santa Maria, Region de Valparaiso, Chile","Santa+Maria,+Region+de+Valparaiso,+Chile",0,"Santa María, Santa Maria, Valparaíso, Chile",-32.7470027,-70.6587073,"03/30/2020",NA
"78",78,"Valparaiso","Santo Domingo",11934,41.9,"Santo Domingo, Region de Valparaiso, Chile","Santo+Domingo,+Region+de+Valparaiso,+Chile",0,"Santo Domingo, Valparaíso, Chile",-33.635833,-71.628056,"03/30/2020",NA
"79",79,"Valparaiso","Valparaiso",315732,11.4,"Valparaiso, Region de Valparaiso, Chile","Valparaiso,+Region+de+Valparaiso,+Chile",0,"Valparaíso, Chile",-33.047238,-71.6126885,"03/30/2020",16
"80",80,"Valparaiso","Villa Alemana",139310,8.6,"Villa Alemana, Region de Valparaiso, Chile","Villa+Alemana,+Region+de+Valparaiso,+Chile",0,"Villa Alemana, Valparaíso, Chile",-33.0495006,-71.374603,"03/30/2020",6
"81",81,"Valparaiso","Vina del Mar",361371,18.3,"Vina del Mar, Region de Valparaiso, Chile","Vina+del+Mar,+Region+de+Valparaiso,+Chile",0,"Viña del Mar, Valparaíso, Chile",-33.0153481,-71.5500276,"03/30/2020",29
"82",82,"Valparaiso","Zapallar",7994,0,"Zapallar, Region de Valparaiso, Chile","Zapallar,+Region+de+Valparaiso,+Chile",0,"Zapallar, Valparaíso, Chile",-32.5538059,-71.4581359,"03/30/2020",NA
"83",83,"Metropolitana","Alhue",7405,0,"Alhue, Region de Metropolitana, Chile","Alhue,+Region+de+Metropolitana,+Chile",0,"Alhué, Santiago Metropolitan Region, Chile",-34.0264691,-71.1002881,"03/30/2020",NA
"84",84,"Metropolitana","Buin",109641,18.2,"Buin, Region de Metropolitana, Chile","Buin,+Region+de+Metropolitana,+Chile",0,"Buin, Santiago Metropolitan Region, Chile",-33.7313897,-70.742431,"03/30/2020",7
"85",85,"Metropolitana","Calera de Tango",28525,28,"Calera de Tango, Region de Metropolitana, Chile","Calera+de+Tango,+Region+de+Metropolitana,+Chile",0,"Calera de Tango, Región Metropolitana, Chile",-33.6291031,-70.7686968,"03/30/2020",6
"86",86,"Metropolitana","Cerrillos",88956,12.4,"Cerrillos, Region de Metropolitana, Chile","Cerrillos,+Region+de+Metropolitana,+Chile",0,"Cerrillos, Chile, Santiago Metropolitan Region, Chile",-33.5010107,-70.7098735,"03/30/2020",NA
"87",87,"Metropolitana","Cerro Navia",142465,25.3,"Cerro Navia, Region de Metropolitana, Chile","Cerro+Navia,+Region+de+Metropolitana,+Chile",0,"Cerro Navia, Santiago Metropolitan Region, Chile",-33.4218958,-70.7404531,"03/30/2020",19
"88",88,"Metropolitana","Colina",180353,34.4,"Colina, Region de Metropolitana, Chile","Colina,+Region+de+Metropolitana,+Chile",0,"Colina, Santiago Metropolitan Region, Chile",-33.2045451,-70.6759654,"03/30/2020",32
"89",89,"Metropolitana","Conchali",139195,27.3,"Conchali, Region de Metropolitana, Chile","Conchali,+Region+de+Metropolitana,+Chile",0,"Conchalí, Conchali, Santiago Metropolitan Region, Chile",-33.3846893,-70.6800213,"03/30/2020",14
"90",90,"Metropolitana","Curacavi",36430,24.7,"Curacavi, Region de Metropolitana, Chile","Curacavi,+Region+de+Metropolitana,+Chile",0,"Curacaví, Curacavi, Santiago Metropolitan Region, Chile",-33.4009037,-71.1267263,"03/30/2020",5
"91",91,"Metropolitana","El Bosque",172000,26.7,"El Bosque, Region de Metropolitana, Chile","El+Bosque,+Region+de+Metropolitana,+Chile",0,"El Bosque, Santiago Metropolitan Region, Chile",-33.5589761,-70.6787503,"03/30/2020",18
"92",92,"Metropolitana","El Monte",40014,17.5,"El Monte, Region de Metropolitana, Chile","El+Monte,+Region+de+Metropolitana,+Chile",0,"El Monte, Santiago Metropolitan Region, Chile",-33.6815281,-70.9853968,"03/30/2020",NA
"93",93,"Metropolitana","Estacion Central",206792,19.8,"Estacion Central, Region de Metropolitana, Chile","Estacion+Central,+Region+de+Metropolitana,+Chile",0,"Santiago, Estación Central, Santiago Metropolitan Region, Chile",-33.4619178,-70.6985099,"03/30/2020",16
"94",94,"Metropolitana","Huechuraba",112528,31.1,"Huechuraba, Region de Metropolitana, Chile","Huechuraba,+Region+de+Metropolitana,+Chile",0,"Huechuraba, Santiago Metropolitan Region, Chile",-33.3742128,-70.6367425,"03/30/2020",17
"95",95,"Metropolitana","Independencia",142065,21.8,"Independencia, Region de Metropolitana, Chile","Independencia,+Region+de+Metropolitana,+Chile",0,"Independencia, Chile, Santiago Metropolitan Region, Chile",-33.4155974,-70.6642603,"03/30/2020",15
"96",96,"Metropolitana","Isla de Maipo",40171,17.4,"Isla de Maipo, Region de Metropolitana, Chile","Isla+de+Maipo,+Region+de+Metropolitana,+Chile",0,"Isla de Maipo, Santiago Metropolitan Region, Chile",-33.7464562,-70.9,"03/30/2020",NA
"97",97,"Metropolitana","La Cisterna",100434,25.9,"La Cisterna, Region de Metropolitana, Chile","La+Cisterna,+Region+de+Metropolitana,+Chile",0,"La Cisterna, Santiago Metropolitan Region, Chile",-33.5264495,-70.6613511,"03/30/2020",10
"98",98,"Metropolitana","La Florida",402433,25.6,"La Florida, Region de Metropolitana, Chile","La+Florida,+Region+de+Metropolitana,+Chile",0,"La Florida, Santiago Metropolitan Region, Chile",-33.5226882,-70.5987142,"03/30/2020",43
"99",99,"Metropolitana","La Granja",122557,21.2,"La Granja, Region de Metropolitana, Chile","La+Granja,+Region+de+Metropolitana,+Chile",0,"La Granja, Santiago Metropolitan Region, Chile",-33.5377931,-70.620678,"03/30/2020",5
"100",100,"Metropolitana","La Pintana",189335,13.2,"La Pintana, Region de Metropolitana, Chile","La+Pintana,+Region+de+Metropolitana,+Chile",0,"La Pintana, Santiago Metropolitan Region, Chile",-33.5855661,-70.6285838,"03/30/2020",NA
"101",101,"Metropolitana","La Reina",100252,43.9,"La Reina, Region de Metropolitana, Chile","La+Reina,+Region+de+Metropolitana,+Chile",0,"La Reina, Santiago Metropolitan Region, Chile",-33.4411269,-70.5340591,"03/30/2020",24
"102",102,"Metropolitana","Lampa",126898,14.2,"Lampa, Region de Metropolitana, Chile","Lampa,+Region+de+Metropolitana,+Chile",0,"Lampa, Santiago Metropolitan Region, Chile",-33.2827093,-70.879328,"03/30/2020",10
"103",103,"Metropolitana","Las Condes",330759,80.4,"Las Condes, Region de Metropolitana, Chile","Las+Condes,+Region+de+Metropolitana,+Chile",0,"Las Condes, Santiago Metropolitan Region, Chile",-33.4079424,-70.5451063,"03/30/2020",181
"104",104,"Metropolitana","Lo Barnechea",124076,84.6,"Lo Barnechea, Region de Metropolitana, Chile","Lo+Barnechea,+Region+de+Metropolitana,+Chile",0,"Lo Barnechea, Santiago Metropolitan Region, Chile",-33.352669,-70.518517,"03/30/2020",68
"105",105,"Metropolitana","Lo Espejo",103865,22.1,"Lo Espejo, Region de Metropolitana, Chile","Lo+Espejo,+Region+de+Metropolitana,+Chile",0,"Lo Espejo, San Bernardo, Santiago Metropolitan Region, Chile",-33.5220498,-70.690565,"03/30/2020",4
"106",106,"Metropolitana","Lo Prado",104403,30.7,"Lo Prado, Region de Metropolitana, Chile","Lo+Prado,+Region+de+Metropolitana,+Chile",0,"Lo Prado, Santiago Metropolitan Region, Chile",-33.4442688,-70.7233493,"03/30/2020",14
"107",107,"Metropolitana","Macul",134635,27.5,"Macul, Region de Metropolitana, Chile","Macul,+Region+de+Metropolitana,+Chile",0,"Macul, Santiago Metropolitan Region, Chile",-33.4851471,-70.5992005,"03/30/2020",10
"108",108,"Metropolitana","Maipu",578605,18.3,"Maipu, Region de Metropolitana, Chile","Maipu,+Region+de+Metropolitana,+Chile",0,"Maipú, Maipu, Santiago Metropolitan Region, Chile",-33.5105866,-70.7572607,"03/30/2020",43
"109",109,"Metropolitana","Maria Pinto",14926,0,"Maria Pinto, Region de Metropolitana, Chile","Maria+Pinto,+Region+de+Metropolitana,+Chile",0,"María Pinto, Maria Pinto, Santiago Metropolitan Region, Chile",-33.5176692,-71.1239221,"03/30/2020",NA
"110",110,"Metropolitana","Melipilla",141612,8.5,"Melipilla, Region de Metropolitana, Chile","Melipilla,+Region+de+Metropolitana,+Chile",0,"Melipilla, Santiago Metropolitan Region, Chile",-33.6858668,-71.2180485,"03/30/2020",6
"111",111,"Metropolitana","Nunoa",250192,47.2,"Nunoa, Region de Metropolitana, Chile","Nunoa,+Region+de+Metropolitana,+Chile",0,"Ñuñoa, Santiago Metropolitan Region, Chile",-33.4566678,-70.5978415,"03/30/2020",67
"112",112,"Metropolitana","Padre Hurtado",74188,24.3,"Padre Hurtado, Region de Metropolitana, Chile","Padre+Hurtado,+Region+de+Metropolitana,+Chile",0,"Padre Hurtado, Santiago Metropolitan Region, Chile",-33.5695362,-70.8156717,"03/30/2020",10
"113",113,"Metropolitana","Paine",82766,3.6,"Paine, Region de Metropolitana, Chile","Paine,+Region+de+Metropolitana,+Chile",0,"Paine, Santiago Metropolitan Region, Chile",-33.8816181,-70.7366442,"03/30/2020",NA
"114",114,"Metropolitana","Pedro Aguirre Cerda",107803,17.6,"Pedro Aguirre Cerda, Region de Metropolitana, Chile","Pedro+Aguirre+Cerda,+Region+de+Metropolitana,+Chile",0,"Pedro Aguirre Cerda, Santiago Metropolitan Region, Chile",-33.4940901,-70.6765026,"03/30/2020",7
"115",115,"Metropolitana","Penaflor",101058,17.8,"Penaflor, Region de Metropolitana, Chile","Penaflor,+Region+de+Metropolitana,+Chile",0,"Peñaflor, Santiago Metropolitan Region, Chile",-33.6060255,-70.8781837,"03/30/2020",10
"116",116,"Metropolitana","Penalolen",266798,29.2,"Penalolen, Region de Metropolitana, Chile","Penalolen,+Region+de+Metropolitana,+Chile",0,"Peñalolén, Santiago Metropolitan Region, Chile",-33.4719116,-70.5627854,"03/30/2020",31
"117",117,"Metropolitana","Pirque",30433,13.1,"Pirque, Region de Metropolitana, Chile","Pirque,+Region+de+Metropolitana,+Chile",0,"Pirque, Santiago Metropolitan Region, Chile",-33.6874736,-70.5883812,"03/30/2020",NA
"118",118,"Metropolitana","Providencia",157749,72.9,"Providencia, Region de Metropolitana, Chile","Providencia,+Region+de+Metropolitana,+Chile",0,"Providencia, Santiago Metropolitan Region, Chile",-33.4314474,-70.6093325,"03/30/2020",82
"119",119,"Metropolitana","Pudahuel",253139,20.5,"Pudahuel, Region de Metropolitana, Chile","Pudahuel,+Region+de+Metropolitana,+Chile",0,"Pudahuel, Santiago Metropolitan Region, Chile",-33.4421135,-70.7640644,"03/30/2020",17
"120",120,"Metropolitana","Puente Alto",645909,25.7,"Puente Alto, Region de Metropolitana, Chile","Puente+Alto,+Region+de+Metropolitana,+Chile",0,"Puente Alto, Santiago Metropolitan Region, Chile",-33.6186082,-70.5906057,"03/30/2020",45
"121",121,"Metropolitana","Quilicura",254694,22.4,"Quilicura, Region de Metropolitana, Chile","Quilicura,+Region+de+Metropolitana,+Chile",0,"Quilicura, Santiago Metropolitan Region, Chile",-33.3576747,-70.7292718,"03/30/2020",17
"122",122,"Metropolitana","Quinta Normal",136368,41.8,"Quinta Normal, Region de Metropolitana, Chile","Quinta+Normal,+Region+de+Metropolitana,+Chile",0,"Quinta Normal, Santiago Metropolitan Region, Chile",-33.4317378,-70.6923917,"03/30/2020",21
"123",123,"Metropolitana","Recoleta",190075,27.4,"Recoleta, Region de Metropolitana, Chile","Recoleta,+Region+de+Metropolitana,+Chile",0,"Recoleta, Santiago Metropolitan Region, Chile",-33.4061916,-70.6336176,"03/30/2020",17
"124",124,"Metropolitana","Renca",160847,13.7,"Renca, Region de Metropolitana, Chile","Renca,+Region+de+Metropolitana,+Chile",0,"Renca, Santiago Metropolitan Region, Chile",-33.4063601,-70.7279965,"03/30/2020",9
"125",125,"Metropolitana","San Bernardo",334836,23.6,"San Bernardo, Region de Metropolitana, Chile","San+Bernardo,+Region+de+Metropolitana,+Chile",0,"San Bernardo, Santiago Metropolitan Region, Chile",-33.5854485,-70.6987361,"03/30/2020",32
"126",126,"Metropolitana","San Joaquin",103485,40.6,"San Joaquin, Region de Metropolitana, Chile","San+Joaquin,+Region+de+Metropolitana,+Chile",0,"San Joaquín, Santiago Metropolitan Region, Chile",-33.496202,-70.6283361,"03/30/2020",13
"127",127,"Metropolitana","San Jose de Maipo",18644,16.1,"San Jose de Maipo, Region de Metropolitana, Chile","San+Jose+de+Maipo,+Region+de+Metropolitana,+Chile",0,"San José de Maipo, San Jose de Maipo, Santiago Metropolitan Region, Chile",-33.643169,-70.345207,"03/30/2020",NA
"128",128,"Metropolitana","San Miguel",133059,42.1,"San Miguel, Region de Metropolitana, Chile","San+Miguel,+Region+de+Metropolitana,+Chile",0,"San Miguel, Pedro Aguirre Cerda, Santiago Metropolitan Region, Chile",-33.4923545,-70.651797,"03/30/2020",25
"129",129,"Metropolitana","San Pedro",11953,0,"San Pedro, Region de Metropolitana, Chile","San+Pedro,+Region+de+Metropolitana,+Chile",0,"San Pedro, Santiago Metropolitan Region, Chile",-33.8950912,-71.4563779,"03/30/2020",NA
"130",130,"Metropolitana","San Ramon",86510,13.9,"San Ramon, Region de Metropolitana, Chile","San+Ramon,+Region+de+Metropolitana,+Chile",0,"San Ramón, Santiago Metropolitan Region, Chile",-33.5510207,-70.6464256,"03/30/2020",NA
"131",131,"Metropolitana","Santiago",503147,53.9,"Santiago, Region de Metropolitana, Chile","Santiago,+Region+de+Metropolitana,+Chile",0,"Santiago Metropolitan Region, Chile",-33.4375545,-70.6504896,"03/30/2020",127
"132",132,"Metropolitana","Talagante",81838,17.1,"Talagante, Region de Metropolitana, Chile","Talagante,+Region+de+Metropolitana,+Chile",0,"Talagante, Santiago Metropolitan Region, Chile",-33.6625182,-70.9249706,"03/30/2020",NA
"133",133,"Metropolitana","Tiltil",21477,18.6,"Tiltil, Region de Metropolitana, Chile","Tiltil,+Region+de+Metropolitana,+Chile",0,"Tiltil, Santiago Metropolitan Region, Chile",-33.0838906,-70.9279843,"03/30/2020",NA
"134",134,"Metropolitana","Vitacura",96774,117.8,"Vitacura, Region de Metropolitana, Chile","Vitacura,+Region+de+Metropolitana,+Chile",0,"Vitacura, Santiago Metropolitan Region, Chile",-33.3905211,-70.5724124,"03/30/2020",83
"135",135,"Del Libertador General Bernardo OHiggins","Chepica",15925,0,"Chepica, Region de Del Libertador General Bernardo OHiggins, Chile","Chepica,+Region+de+Del+Libertador+General+Bernardo+OHiggins,+Chile",0,"Chépica, Chepica, O'Higgins, Chile",-34.7255387,-71.2725925,"03/30/2020",NA
"136",136,"Del Libertador General Bernardo OHiggins","Chimbarongo",37696,5.3,"Chimbarongo, Region de Del Libertador General Bernardo OHiggins, Chile","Chimbarongo,+Region+de+Del+Libertador+General+Bernardo+OHiggins,+Chile",0,"Chimbarongo, O'Higgins, Chile",-34.70924,-71.0412713,"03/30/2020",NA
"137",137,"Del Libertador General Bernardo OHiggins","Codegua",14096,0,"Codegua, Region de Del Libertador General Bernardo OHiggins, Chile","Codegua,+Region+de+Del+Libertador+General+Bernardo+OHiggins,+Chile",0,"Codegua, O'Higgins, Chile",-34.0370319,-70.6728641,"03/30/2020",NA
"138",138,"Del Libertador General Bernardo OHiggins","Coinco",7831,0,"Coinco, Region de Del Libertador General Bernardo OHiggins, Chile","Coinco,+Region+de+Del+Libertador+General+Bernardo+OHiggins,+Chile",0,"Coínco, Coinco, O'Higgins, Chile",-34.2661579,-70.9593417,"03/30/2020",NA
"139",139,"Del Libertador General Bernardo OHiggins","Coltauco",21263,0,"Coltauco, Region de Del Libertador General Bernardo OHiggins, Chile","Coltauco,+Region+de+Del+Libertador+General+Bernardo+OHiggins,+Chile",0,"Coltauco, O'Higgins, Chile",-34.2877978,-71.0855512,"03/30/2020",NA
"140",140,"Del Libertador General Bernardo OHiggins","Donihue",22700,0,"Donihue, Region de Del Libertador General Bernardo OHiggins, Chile","Donihue,+Region+de+Del+Libertador+General+Bernardo+OHiggins,+Chile",0,"Doñihue, O'Higgins, Chile",-34.228986,-70.9579288,"03/30/2020",NA
"141",141,"Del Libertador General Bernardo OHiggins","Graneros",36504,0,"Graneros, Region de Del Libertador General Bernardo OHiggins, Chile","Graneros,+Region+de+Del+Libertador+General+Bernardo+OHiggins,+Chile",0,"Graneros, O'Higgins, Chile",-34.0666916,-70.7325646,"03/30/2020",NA
"142",142,"Del Libertador General Bernardo OHiggins","La Estrella",3114,0,"La Estrella, Region de Del Libertador General Bernardo OHiggins, Chile","La+Estrella,+Region+de+Del+Libertador+General+Bernardo+OHiggins,+Chile",0,"La Estrella, O'Higgins, Chile",-34.2051972,-71.6547276,"03/30/2020",NA
"143",143,"Del Libertador General Bernardo OHiggins","Las Cabras",26749,0,"Las Cabras, Region de Del Libertador General Bernardo OHiggins, Chile","Las+Cabras,+Region+de+Del+Libertador+General+Bernardo+OHiggins,+Chile",0,"Las Cabras, O'Higgins, Chile",-34.2932184,-71.3126292,"03/30/2020",NA
"144",144,"Del Libertador General Bernardo OHiggins","Litueche",6765,0,"Litueche, Region de Del Libertador General Bernardo OHiggins, Chile","Litueche,+Region+de+Del+Libertador+General+Bernardo+OHiggins,+Chile",0,"Litueche, O'Higgins, Chile",-34.117272,-71.725176,"03/30/2020",NA
"145",145,"Del Libertador General Bernardo OHiggins","Lolol",7289,0,"Lolol, Region de Del Libertador General Bernardo OHiggins, Chile","Lolol,+Region+de+Del+Libertador+General+Bernardo+OHiggins,+Chile",0,"Lolol, O'Higgins, Chile",-34.7284166,-71.6458243,"03/30/2020",NA
"146",146,"Del Libertador General Bernardo OHiggins","Machali",59913,13.4,"Machali, Region de Del Libertador General Bernardo OHiggins, Chile","Machali,+Region+de+Del+Libertador+General+Bernardo+OHiggins,+Chile",0,"Machalí, Machali, O'Higgins, Chile",-34.179452,-70.6565151,"03/30/2020",NA
"147",147,"Del Libertador General Bernardo OHiggins","Malloa",14163,0,"Malloa, Region de Del Libertador General Bernardo OHiggins, Chile","Malloa,+Region+de+Del+Libertador+General+Bernardo+OHiggins,+Chile",0,"Malloa, O'Higgins, Chile",-34.4423905,-70.9463887,"03/30/2020",NA
"148",148,"Del Libertador General Bernardo OHiggins","Marchihue",7632,0,"Marchihue, Region de Del Libertador General Bernardo OHiggins, Chile","Marchihue,+Region+de+Del+Libertador+General+Bernardo+OHiggins,+Chile",0,"Marchigüe, Marchihue, O'Higgins, Chile",-34.3984467,-71.6215715,"03/30/2020",NA
"149",149,"Del Libertador General Bernardo OHiggins","Mostazal",27462,0,"Mostazal, Region de Del Libertador General Bernardo OHiggins, Chile","Mostazal,+Region+de+Del+Libertador+General+Bernardo+OHiggins,+Chile",0,"Mostazal, O'Higgins, Chile",-33.9780168,-70.7042142,"03/30/2020",NA
"150",150,"Del Libertador General Bernardo OHiggins","Nancagua",19141,0,"Nancagua, Region de Del Libertador General Bernardo OHiggins, Chile","Nancagua,+Region+de+Del+Libertador+General+Bernardo+OHiggins,+Chile",0,"Nancagua, O'Higgins, Chile",-34.6523209,-71.1968597,"03/30/2020",NA
"151",151,"Del Libertador General Bernardo OHiggins","Navidad",6904,0,"Navidad, Region de Del Libertador General Bernardo OHiggins, Chile","Navidad,+Region+de+Del+Libertador+General+Bernardo+OHiggins,+Chile",0,"Navidad, O'Higgins, Chile",-33.9578544,-71.8276425,"03/30/2020",NA
"152",152,"Del Libertador General Bernardo OHiggins","Olivar",14624,13.7,"Olivar, Region de Del Libertador General Bernardo OHiggins, Chile","Olivar,+Region+de+Del+Libertador+General+Bernardo+OHiggins,+Chile",0,"Olivar, O'Higgins, Chile",-34.233,-70.883,"03/30/2020",NA
"153",153,"Del Libertador General Bernardo OHiggins","Palmilla",13299,0,"Palmilla, Region de Del Libertador General Bernardo OHiggins, Chile","Palmilla,+Region+de+Del+Libertador+General+Bernardo+OHiggins,+Chile",0,"Palmilla, O'Higgins, Chile",-34.5774223,-71.380135,"03/30/2020",NA
"154",154,"Del Libertador General Bernardo OHiggins","Paredones",6349,0,"Paredones, Region de Del Libertador General Bernardo OHiggins, Chile","Paredones,+Region+de+Del+Libertador+General+Bernardo+OHiggins,+Chile",0,"Paredones, O'Higgins, Chile",-34.6519651,-71.9001448,"03/30/2020",NA
"155",155,"Del Libertador General Bernardo OHiggins","Peralillo",11848,0,"Peralillo, Region de Del Libertador General Bernardo OHiggins, Chile","Peralillo,+Region+de+Del+Libertador+General+Bernardo+OHiggins,+Chile",0,"Peralillo, O'Higgins, Chile",-34.4772681,-71.487259,"03/30/2020",NA
"156",156,"Del Libertador General Bernardo OHiggins","Peumo",14952,6.7,"Peumo, Region de Del Libertador General Bernardo OHiggins, Chile","Peumo,+Region+de+Del+Libertador+General+Bernardo+OHiggins,+Chile",0,"Peumo, O'Higgins, Chile",-34.3963392,-71.1700793,"03/30/2020",NA
"157",157,"Del Libertador General Bernardo OHiggins","Pichidegua",20743,0,"Pichidegua, Region de Del Libertador General Bernardo OHiggins, Chile","Pichidegua,+Region+de+Del+Libertador+General+Bernardo+OHiggins,+Chile",0,"Pichidegua, O'Higgins, Chile",-34.3573785,-71.2872596,"03/30/2020",NA
"158",158,"Del Libertador General Bernardo OHiggins","Pichilemu",17882,0,"Pichilemu, Region de Del Libertador General Bernardo OHiggins, Chile","Pichilemu,+Region+de+Del+Libertador+General+Bernardo+OHiggins,+Chile",0,"Pichilemu, O'Higgins, Chile",-34.3928027,-72.0158688,"03/30/2020",NA
"159",159,"Del Libertador General Bernardo OHiggins","Placilla",9164,10.9,"Placilla, Region de Del Libertador General Bernardo OHiggins, Chile","Placilla,+Region+de+Del+Libertador+General+Bernardo+OHiggins,+Chile",0,"Placilla, O'Higgins, Chile",-34.6337953,-71.1108273,"03/30/2020",NA
"160",160,"Del Libertador General Bernardo OHiggins","Pumanque",3531,0,"Pumanque, Region de Del Libertador General Bernardo OHiggins, Chile","Pumanque,+Region+de+Del+Libertador+General+Bernardo+OHiggins,+Chile",0,"Pumanque, O'Higgins, Chile",-34.6026565,-71.6552933,"03/30/2020",NA
"161",161,"Del Libertador General Bernardo OHiggins","Quinta de Tilcoco",13877,14.4,"Quinta de Tilcoco, Region de Del Libertador General Bernardo OHiggins, Chile","Quinta+de+Tilcoco,+Region+de+Del+Libertador+General+Bernardo+OHiggins,+Chile",0,"Quinta de Tilcoco, O'Higgins, Chile",-34.3554003,-70.9704681,"03/30/2020",NA
"162",162,"Del Libertador General Bernardo OHiggins","Rancagua",265211,5.7,"Rancagua, Region de Del Libertador General Bernardo OHiggins, Chile","Rancagua,+Region+de+Del+Libertador+General+Bernardo+OHiggins,+Chile",0,"Rancagua, O'Higgins, Chile",-34.1701324,-70.7406259,"03/30/2020",7
"163",163,"Del Libertador General Bernardo OHiggins","Rengo",63710,1.6,"Rengo, Region de Del Libertador General Bernardo OHiggins, Chile","Rengo,+Region+de+Del+Libertador+General+Bernardo+OHiggins,+Chile",0,"Rengo, O'Higgins, Chile",-34.4028433,-70.8608394,"03/30/2020",NA
"164",164,"Del Libertador General Bernardo OHiggins","Requinoa",30371,3.3,"Requinoa, Region de Del Libertador General Bernardo OHiggins, Chile","Requinoa,+Region+de+Del+Libertador+General+Bernardo+OHiggins,+Chile",0,"Requínoa, Requinoa, O'Higgins, Chile",-34.2883749,-70.815833,"03/30/2020",NA
"165",165,"Del Libertador General Bernardo OHiggins","San Fernando",78642,5.1,"San Fernando, Region de Del Libertador General Bernardo OHiggins, Chile","San+Fernando,+Region+de+Del+Libertador+General+Bernardo+OHiggins,+Chile",0,"San Fernando, O'Higgins, Chile",-34.5858603,-70.9907801,"03/30/2020",NA
"166",166,"Del Libertador General Bernardo OHiggins","San Vicente",50617,7.9,"San Vicente, Region de Del Libertador General Bernardo OHiggins, Chile","San+Vicente,+Region+de+Del+Libertador+General+Bernardo+OHiggins,+Chile",0,"San Vicente de Tagua Tagua, San Vicente, O'Higgins, Chile",-34.4349435,-71.0913748,"03/30/2020",NA
"167",167,"Del Libertador General Bernardo OHiggins","Santa Cruz",41096,4.9,"Santa Cruz, Region de Del Libertador General Bernardo OHiggins, Chile","Santa+Cruz,+Region+de+Del+Libertador+General+Bernardo+OHiggins,+Chile",0,"Santa Cruz, O'Higgins, Chile",-34.6324213,-71.3592116,"03/30/2020",NA
"168",168,"Maule","Cauquenes",44143,9.1,"Cauquenes, Region de Maule, Chile","Cauquenes,+Region+de+Maule,+Chile",0,"Cauquenes, Maule, Chile",-35.9676285,-72.3222331,"03/30/2020",NA
"169",169,"Maule","Chanco",9331,0,"Chanco, Region de Maule, Chile","Chanco,+Region+de+Maule,+Chile",0,"Chanco, Maule, Chile",-35.7333,-72.5333,"03/30/2020",NA
"170",170,"Maule","Colbun",22565,22.2,"Colbun, Region de Maule, Chile","Colbun,+Region+de+Maule,+Chile",0,"Colbún, Colbun, Maule, Chile",-35.699248,-71.4146915,"03/30/2020",NA
"171",171,"Maule","Constitucion",50348,9.9,"Constitucion, Region de Maule, Chile","Constitucion,+Region+de+Maule,+Chile",0,"Constitución, Constitucion, Maule, Chile",-35.3333,-72.4167,"03/30/2020",NA
"172",172,"Maule","Curepto",9426,21.2,"Curepto, Region de Maule, Chile","Curepto,+Region+de+Maule,+Chile",0,"Curepto, Maule, Chile",-35.0958545,-72.0208891,"03/30/2020",NA
"173",173,"Maule","Curico",163626,7.9,"Curico, Region de Maule, Chile","Curico,+Region+de+Maule,+Chile",0,"Curico, Maule, Chile",-34.9779853,-71.2528803,"03/30/2020",6
"174",174,"Maule","Empedrado",4206,0,"Empedrado, Region de Maule, Chile","Empedrado,+Region+de+Maule,+Chile",0,"Empedrado, Maule, Chile",-35.589943,-72.2763046,"03/30/2020",NA
"175",175,"Maule","Hualane",10222,0,"Hualane, Region de Maule, Chile","Hualane,+Region+de+Maule,+Chile",0,"Hualañé, Maule, Chile",-34.9725157,-71.7993371,"03/30/2020",NA
"176",176,"Maule","Licanten",6989,0,"Licanten, Region de Maule, Chile","Licanten,+Region+de+Maule,+Chile",0,"Licantén, Licanten, Maule, Chile",-34.9852447,-71.984988,"03/30/2020",NA
"177",177,"Maule","Linares",101073,11.9,"Linares, Region de Maule, Chile","Linares,+Region+de+Maule,+Chile",0,"Linares, Maule, Chile",-35.846407,-71.5996137,"03/30/2020",4
"178",178,"Maule","Longavi",32810,6.1,"Longavi, Region de Maule, Chile","Longavi,+Region+de+Maule,+Chile",0,"Longaví, Longavi, Maule, Chile",-35.9636265,-71.6831251,"03/30/2020",NA
"179",179,"Maule","Maule",60000,5,"Maule, Region de Maule, Chile","Maule,+Region+de+Maule,+Chile",0,"Maule, Chile",-35.5163603,-71.5723953,"03/30/2020",NA
"180",180,"Maule","Molina",49800,6,"Molina, Region de Maule, Chile","Molina,+Region+de+Maule,+Chile",0,"Molina, Maule, Chile",-35.1164987,-71.2829759,"03/30/2020",NA
"181",181,"Maule","Parral",44544,9,"Parral, Region de Maule, Chile","Parral,+Region+de+Maule,+Chile",0,"Parral, Maule, Chile",-36.1406484,-71.8227528,"03/30/2020",4
"182",182,"Maule","Pelarco",9083,0,"Pelarco, Region de Maule, Chile","Pelarco,+Region+de+Maule,+Chile",0,"Pelarco, Maule, Chile",-35.3838823,-71.447192,"03/30/2020",NA
"183",183,"Maule","Pelluhue",8092,12.4,"Pelluhue, Region de Maule, Chile","Pelluhue,+Region+de+Maule,+Chile",0,"Pelluhue, Maule, Chile",-35.8141512,-72.5749979,"03/30/2020",NA
"184",184,"Maule","Pencahue",8601,0,"Pencahue, Region de Maule, Chile","Pencahue,+Region+de+Maule,+Chile",0,"Pencahue, Maule, Chile",-35.3960652,-71.7974563,"03/30/2020",NA
"185",185,"Maule","Rauco",11248,8.9,"Rauco, Region de Maule, Chile","Rauco,+Region+de+Maule,+Chile",0,"Rauco, Maule, Chile",-34.9253441,-71.3156315,"03/30/2020",NA
"186",186,"Maule","Retiro",21071,0,"Retiro, Region de Maule, Chile","Retiro,+Region+de+Maule,+Chile",0,"Retiro, Maule, Chile",-36.05,-71.7667,"03/30/2020",NA
"187",187,"Maule","Rio Claro",14753,13.6,"Rio Claro, Region de Maule, Chile","Rio+Claro,+Region+de+Maule,+Chile",0,"Río Claro, Maule, Chile",-35.2808267,-71.2599507,"03/30/2020",NA
"188",188,"Maule","Romeral",16170,12.4,"Romeral, Region de Maule, Chile","Romeral,+Region+de+Maule,+Chile",0,"Romeral, Rauco, Maule, Chile",-34.933333,-71.316667,"03/30/2020",NA
"189",189,"Maule","Sagrada Familia",19469,5.1,"Sagrada Familia, Region de Maule, Chile","Sagrada+Familia,+Region+de+Maule,+Chile",0,"Sagrada Familia, Maule, Chile",-34.9984205,-71.3445822,"03/30/2020",NA
"190",190,"Maule","San Clemente",46292,0,"San Clemente, Region de Maule, Chile","San+Clemente,+Region+de+Maule,+Chile",0,"San Clemente, Maule, Chile",-35.5364676,-71.4893705,"03/30/2020",NA
"191",191,"Maule","San Javier",49451,14.2,"San Javier, Region de Maule, Chile","San+Javier,+Region+de+Maule,+Chile",0,"San Javier, Maule, Chile",-35.5957176,-71.729441,"03/30/2020",NA
"192",192,"Maule","San Rafael",9959,10,"San Rafael, Region de Maule, Chile","San+Rafael,+Region+de+Maule,+Chile",0,"San Rafael, Maule, Chile",-35.3074574,-71.5234986,"03/30/2020",NA
"193",193,"Maule","Talca",236724,21.5,"Talca, Region de Maule, Chile","Talca,+Region+de+Maule,+Chile",0,"Talca, Maule, Chile",-35.4232444,-71.6484804,"03/30/2020",34
"194",194,"Maule","Teno",30850,0,"Teno, Region de Maule, Chile","Teno,+Region+de+Maule,+Chile",0,"Teno, Maule, Chile",-34.8702993,-71.1664033,"03/30/2020",NA
"195",195,"Maule","Vichuquen",4381,0,"Vichuquen, Region de Maule, Chile","Vichuquen,+Region+de+Maule,+Chile",0,"Vichuquén, Maule, Chile",-34.8411928,-72.0210791,"03/30/2020",NA
"196",196,"Maule","Villa Alegre",17512,0,"Villa Alegre, Region de Maule, Chile","Villa+Alegre,+Region+de+Maule,+Chile",0,"Villa Alegre, Maule, Chile",-35.6761961,-71.7439129,"03/30/2020",NA
"197",197,"Maule","Yerbas Buenas",19200,0,"Yerbas Buenas, Region de Maule, Chile","Yerbas+Buenas,+Region+de+Maule,+Chile",0,"Yerbas Buenas, Maule, Chile",-35.750077,-71.5837328,"03/30/2020",NA
"198",198,"Nuble","Bulnes",22607,199.1,"Bulnes, Region de Nuble, Chile","Bulnes,+Region+de+Nuble,+Chile",0,"Bulnes, Bulnes, Chile, Ñuble, Chile",-36.7421593,-72.3017718,"03/30/2020",12
"199",199,"Nuble","Chillan",198624,164.6,"Chillan, Region de Nuble, Chile","Chillan,+Region+de+Nuble,+Chile",0,"Chillán, Chillan, Ñuble, Chile",-36.6062618,-72.1023351,"03/30/2020",114
"200",200,"Nuble","Chillan Viejo",33827,100.5,"Chillan Viejo, Region de Nuble, Chile","Chillan+Viejo,+Region+de+Nuble,+Chile",0,"Chillán Viejo, Ñuble, Chile",-36.6291031,-72.1397968,"03/30/2020",13
"201",201,"Nuble","Cobquecura",5275,0,"Cobquecura, Region de Nuble, Chile","Cobquecura,+Region+de+Nuble,+Chile",0,"Cobquecura, Ñuble, Chile",-36.1386156,-72.7945218,"03/30/2020",NA
"202",202,"Nuble","Coelemu",16845,23.7,"Coelemu, Region de Nuble, Chile","Coelemu,+Region+de+Nuble,+Chile",0,"Coelemu, Ñuble, Chile",-36.4833,-72.7,"03/30/2020",NA
"203",203,"Nuble","Coihueco",28375,24.7,"Coihueco, Region de Nuble, Chile","Coihueco,+Region+de+Nuble,+Chile",0,"Coihueco, Ñuble, Chile",-36.6291031,-71.8327093,"03/30/2020",NA
"204",204,"Nuble","El Carmen",12334,24.3,"El Carmen, Region de Nuble, Chile","El+Carmen,+Region+de+Nuble,+Chile",0,"El Carmen, Ñuble, Chile",-36.9,-72.0333,"03/30/2020",NA
"205",205,"Nuble","Ninhue",5414,18.5,"Ninhue, Region de Nuble, Chile","Ninhue,+Region+de+Nuble,+Chile",0,"Ninhue, Ñuble, Chile",-36.4,-72.4,"03/30/2020",NA
"206",206,"Nuble","Niquen",11567,17.3,"Niquen, Region de Nuble, Chile","Niquen,+Region+de+Nuble,+Chile",0,"Ñiquén, Ñuble, Chile",-36.256434,-72.0911097,"03/30/2020",NA
"207",207,"Nuble","Pemuco",8639,34.7,"Pemuco, Region de Nuble, Chile","Pemuco,+Region+de+Nuble,+Chile",0,"Pemuco, Ñuble, Chile",-36.9667,-72.1,"03/30/2020",NA
"208",208,"Nuble","Pinto",11880,84.2,"Pinto, Region de Nuble, Chile","Pinto,+Region+de+Nuble,+Chile",0,"Pinto, Ñuble, Chile",-36.7,-71.8940937,"03/30/2020",NA
"209",209,"Nuble","Portezuelo",4940,0,"Portezuelo, Region de Nuble, Chile","Portezuelo,+Region+de+Nuble,+Chile",0,"Portezuelo, Ñuble, Chile",-36.5267723,-72.4282133,"03/30/2020",NA
"210",210,"Nuble","Quillon",18777,117.2,"Quillon, Region de Nuble, Chile","Quillon,+Region+de+Nuble,+Chile",0,"Quillón, Ñuble, Chile",-36.7338906,-72.4602031,"03/30/2020",4
"211",211,"Nuble","Quirihue",12192,32.8,"Quirihue, Region de Nuble, Chile","Quirihue,+Region+de+Nuble,+Chile",0,"Quirihue, Ñuble, Chile",-36.2832999,-72.5333,"03/30/2020",NA
"212",212,"Nuble","Ranquil",6261,143.7,"Ranquil, Region de Nuble, Chile","Ranquil,+Region+de+Nuble,+Chile",0,"Ránquil, Ranquil, Ñuble, Chile",-36.652566,-72.5972962,"03/30/2020",NA
"213",213,"Nuble","San Carlos",56252,49.8,"San Carlos, Region de Nuble, Chile","San+Carlos,+Region+de+Nuble,+Chile",0,"San Carlos, Ñuble, Chile",-36.4259693,-71.9689423,"03/30/2020",8
"214",214,"Nuble","San Fabian",4654,128.9,"San Fabian, Region de Nuble, Chile","San+Fabian,+Region+de+Nuble,+Chile",0,"San Fabián, Ñuble, Chile",-36.55,-71.55,"03/30/2020",NA
"215",215,"Nuble","San Ignacio",16624,36.1,"San Ignacio, Region de Nuble, Chile","San+Ignacio,+Region+de+Nuble,+Chile",0,"San Ignacio, Portezuelo, Ñuble, Chile",-36.533333,-72.433333,"03/30/2020",NA
"216",216,"Nuble","San Nicolas",12172,90.4,"San Nicolas, Region de Nuble, Chile","San+Nicolas,+Region+de+Nuble,+Chile",0,"San Nicolás, Ñuble, Chile",-36.5,-72.2167,"03/30/2020",NA
"217",217,"Nuble","Treguaco",5696,0,"Treguaco, Region de Nuble, Chile","Treguaco,+Region+de+Nuble,+Chile",0,"Treguaco, Ñuble, Chile",-36.4211406,-72.6605937,"03/30/2020",NA
"218",218,"Nuble","Yungay",18596,199,"Yungay, Region de Nuble, Chile","Yungay,+Region+de+Nuble,+Chile",0,"Yungay, Ñuble, Chile",-37.1220156,-72.0131562,"03/30/2020",NA
"219",219,"Biobio","Alto Biobio",6775,0,"Alto Biobio, Region de Biobio, Chile","Alto+Biobio,+Region+de+Biobio,+Chile",0,"Alto Bío Bío, Bio Bio, Chile",-38.05,-71.316667,"03/30/2020",NA
"220",220,"Biobio","Antuco",4306,0,"Antuco, Region de Biobio, Chile","Antuco,+Region+de+Biobio,+Chile",0,"Antuco, Bio Bio, Chile",-37.3313164,-71.6764277,"03/30/2020",NA
"221",221,"Biobio","Arauco",38679,15.5,"Arauco, Region de Biobio, Chile","Arauco,+Region+de+Biobio,+Chile",0,"Arauco, Bio Bio, Chile",-37.2457765,-73.3166644,"03/30/2020",NA
"222",222,"Biobio","Cabrero",30725,3.3,"Cabrero, Region de Biobio, Chile","Cabrero,+Region+de+Biobio,+Chile",0,"Cabrero, Bio Bio, Chile",-37.0332999,-72.4,"03/30/2020",NA
"223",223,"Biobio","Canete",37003,0,"Canete, Region de Biobio, Chile","Canete,+Region+de+Biobio,+Chile",0,"Cañete, Bio Bio, Chile",-37.8058201,-73.3919739,"03/30/2020",NA
"224",224,"Biobio","Chiguayante",91180,38.4,"Chiguayante, Region de Biobio, Chile","Chiguayante,+Region+de+Biobio,+Chile",0,"Chiguayante, Bio Bio, Chile",-36.9532201,-73.0173901,"03/30/2020",6
"225",225,"Biobio","Concepcion",238092,30.7,"Concepcion, Region de Biobio, Chile","Concepcion,+Region+de+Biobio,+Chile",0,"Concepción, Bio Bio, Chile",-36.8201352,-73.0443904,"03/30/2020",28
"226",226,"Biobio","Contulmo",6330,0,"Contulmo, Region de Biobio, Chile","Contulmo,+Region+de+Biobio,+Chile",0,"Contulmo, Bio Bio, Chile",-38.0149266,-73.2292878,"03/30/2020",NA
"227",227,"Biobio","Coronel",125829,14.3,"Coronel, Region de Biobio, Chile","Coronel,+Region+de+Biobio,+Chile",0,"Coronel, Bio Bio, Chile",-37.0340769,-73.1404838,"03/30/2020",NA
"228",228,"Biobio","Curanilahue",33892,3,"Curanilahue, Region de Biobio, Chile","Curanilahue,+Region+de+Biobio,+Chile",0,"Curanilahue, Bio Bio, Chile",-37.4762431,-73.3421243,"03/30/2020",NA
"229",229,"Biobio","Florida",11841,16.9,"Florida, Region de Biobio, Chile","Florida,+Region+de+Biobio,+Chile",0,"Florida, Bio Bio, Chile",-36.8237875,-72.6684718,"03/30/2020",NA
"230",230,"Biobio","Hualpen",97273,76.1,"Hualpen, Region de Biobio, Chile","Hualpen,+Region+de+Biobio,+Chile",0,"Hualpén, Bio Bio, Chile",-36.7866757,-73.1099531,"03/30/2020",NA
"231",231,"Biobio","Hualqui",26201,26.7,"Hualqui, Region de Biobio, Chile","Hualqui,+Region+de+Biobio,+Chile",0,"Hualqui, Bio Bio, Chile",-36.9737875,-72.9368437,"03/30/2020",NA
"232",232,"Biobio","Laja",23873,20.9,"Laja, Region de Biobio, Chile","Laja,+Region+de+Biobio,+Chile",0,"Laja, Bio Bio, Chile",-37.271425,-72.7194906,"03/30/2020",NA
"233",233,"Biobio","Lebu",27100,0,"Lebu, Region de Biobio, Chile","Lebu,+Region+de+Biobio,+Chile",0,"Lebu, Bío Bío, Chile",-37.6072825,-73.6508157,"03/30/2020",NA
"234",234,"Biobio","Los Alamos",22524,0,"Los Alamos, Region de Biobio, Chile","Los+Alamos,+Region+de+Biobio,+Chile",0,"Los Álamos, Los Alamos, Bio Bio, Chile",-37.6261237,-73.4622664,"03/30/2020",NA
"235",235,"Biobio","Los Angeles",218515,10.1,"Los Angeles, Region de Biobio, Chile","Los+Angeles,+Region+de+Biobio,+Chile",0,"Los Ángeles, Bio Bio, Chile",-37.4629159,-72.3612251,"03/30/2020",11
"236",236,"Biobio","Lota",45750,2.2,"Lota, Region de Biobio, Chile","Lota,+Region+de+Biobio,+Chile",0,"Lota, Bio Bio, Chile",-37.0920575,-73.1545822,"03/30/2020",NA
"237",237,"Biobio","Mulchen",31041,16.1,"Mulchen, Region de Biobio, Chile","Mulchen,+Region+de+Biobio,+Chile",0,"Mulchén, Bio Bio, Chile",-37.7178812,-72.2374343,"03/30/2020",NA
"238",238,"Biobio","Nacimiento",27944,14.3,"Nacimiento, Region de Biobio, Chile","Nacimiento,+Region+de+Biobio,+Chile",0,"Nacimiento, Bio Bio, Chile",-37.5059062,-72.6737875,"03/30/2020",NA
"239",239,"Biobio","Negrete",10429,19.2,"Negrete, Region de Biobio, Chile","Negrete,+Region+de+Biobio,+Chile",0,"Negrete, Bio Bio, Chile",-37.5862531,-72.5320562,"03/30/2020",NA
"240",240,"Biobio","Penco",49865,10,"Penco, Region de Biobio, Chile","Penco,+Region+de+Biobio,+Chile",0,"Penco, Bio Bio, Chile",-36.7333,-72.9833,"03/30/2020",NA
"241",241,"Biobio","Quilaco",4179,0,"Quilaco, Region de Biobio, Chile","Quilaco,+Region+de+Biobio,+Chile",0,"Quilaco, Bio Bio, Chile",-37.6875544,-71.9986626,"03/30/2020",NA
"242",242,"Biobio","Quilleco",10032,0,"Quilleco, Region de Biobio, Chile","Quilleco,+Region+de+Biobio,+Chile",0,"Quilleco, Bio Bio, Chile",-37.4741645,-71.9836205,"03/30/2020",NA
"243",243,"Biobio","San Pedro de la Paz",145906,48.7,"San Pedro de la Paz, Region de Biobio, Chile","San+Pedro+de+la+Paz,+Region+de+Biobio,+Chile",0,"San Pedro de la Paz, Bio Bio, Chile",-36.8305354,-73.1167368,"03/30/2020",18
"244",244,"Biobio","San Rosendo",3611,0,"San Rosendo, Region de Biobio, Chile","San+Rosendo,+Region+de+Biobio,+Chile",0,"San Rosendo, Bio Bio, Chile",-37.2620301,-72.7231119,"03/30/2020",NA
"245",245,"Biobio","Santa Barbara",14592,13.7,"Santa Barbara, Region de Biobio, Chile","Santa+Barbara,+Region+de+Biobio,+Chile",0,"Santa Bárbara, Bio Bio, Chile",-37.6667,-72.0167,"03/30/2020",NA
"246",246,"Biobio","Santa Juana",14779,0,"Santa Juana, Region de Biobio, Chile","Santa+Juana,+Region+de+Biobio,+Chile",0,"Santa Juana, Bio Bio, Chile",-37.1749687,-72.9457031,"03/30/2020",NA
"247",247,"Biobio","Talcahuano",158345,28.4,"Talcahuano, Region de Biobio, Chile","Talcahuano,+Region+de+Biobio,+Chile",0,"Talcahuano, Bio Bio, Chile",-36.7247834,-73.1169808,"03/30/2020",NA
"248",248,"Biobio","Tirua",11019,36.3,"Tirua, Region de Biobio, Chile","Tirua,+Region+de+Biobio,+Chile",0,"Tirúa, Bio Bio, Chile",-38.3419149,-73.495516,"03/30/2020",NA
"249",249,"Biobio","Tome",58729,51.1,"Tome, Region de Biobio, Chile","Tome,+Region+de+Biobio,+Chile",0,"Tomé, Bio Bio, Chile",-36.6131562,-72.9588593,"03/30/2020",4
"250",250,"Biobio","Tucapel",15205,6.6,"Tucapel, Region de Biobio, Chile","Tucapel,+Region+de+Biobio,+Chile",0,"Tucapel, Bio Bio, Chile",-37.2923048,-71.9512186,"03/30/2020",NA
"251",251,"Biobio","Yumbel",22132,22.6,"Yumbel, Region de Biobio, Chile","Yumbel,+Region+de+Biobio,+Chile",0,"Yumbel, Bio Bio, Chile",-37.0833,-72.5667,"03/30/2020",5
"252",252,"La Araucania","Angol",56058,41,"Angol, Region de La Araucania, Chile","Angol,+Region+de+La+Araucania,+Chile",0,"Angol, Araucania, Chile",-37.8060734,-72.7038047,"03/30/2020",7
"253",253,"La Araucania","Carahue",25486,23.5,"Carahue, Region de La Araucania, Chile","Carahue,+Region+de+La+Araucania,+Chile",0,"Carahue, Araucania, Chile",-38.7088593,-73.1678812,"03/30/2020",NA
"254",254,"La Araucania","Cholchol",12341,24.3,"Cholchol, Region de La Araucania, Chile","Cholchol,+Region+de+La+Araucania,+Chile",0,"Cholchol, Araucania, Chile",-38.6005906,-72.8411406,"03/30/2020",NA
"255",255,"La Araucania","Collipulli",26148,0,"Collipulli, Region de La Araucania, Chile","Collipulli,+Region+de+La+Araucania,+Chile",0,"Collipulli, Araucania, Chile",-37.9582687,-72.4321187,"03/30/2020",NA
"256",256,"La Araucania","Cunco",18055,27.7,"Cunco, Region de La Araucania, Chile","Cunco,+Region+de+La+Araucania,+Chile",0,"Cunco, Araucania, Chile",-38.9320562,-72.0279843,"03/30/2020",NA
"257",257,"La Araucania","Curacautin",18178,16.5,"Curacautin, Region de La Araucania, Chile","Curacautin,+Region+de+La+Araucania,+Chile",0,"Curacautín, Curacautin, Araucania, Chile",-38.4404247,-71.8897433,"03/30/2020",NA
"258",258,"La Araucania","Curarrehue",7802,51.3,"Curarrehue, Region de La Araucania, Chile","Curarrehue,+Region+de+La+Araucania,+Chile",0,"Curarrehue, Araucania, Chile",-39.3616465,-71.5890276,"03/30/2020",NA
"259",259,"La Araucania","Ercilla",8458,23.6,"Ercilla, Region de La Araucania, Chile","Ercilla,+Region+de+La+Araucania,+Chile",0,"Ercilla, Araucania, Chile",-38.0553156,-72.3833,"03/30/2020",NA
"260",260,"La Araucania","Freire",25446,19.6,"Freire, Region de La Araucania, Chile","Freire,+Region+de+La+Araucania,+Chile",0,"Freire, Araucania, Chile",-38.9573,-72.6269289,"03/30/2020",NA
"261",261,"La Araucania","Galvarino",12633,15.8,"Galvarino, Region de La Araucania, Chile","Galvarino,+Region+de+La+Araucania,+Chile",0,"Galvarino, Araucania, Chile",-38.4088593,-72.7821187,"03/30/2020",NA
"262",262,"La Araucania","Gorbea",15148,66,"Gorbea, Region de La Araucania, Chile","Gorbea,+Region+de+La+Araucania,+Chile",0,"Gorbea, Araucania, Chile",-39.1005597,-72.67636,"03/30/2020",4
"263",263,"La Araucania","Lautaro",40746,46.6,"Lautaro, Region de La Araucania, Chile","Lautaro,+Region+de+La+Araucania,+Chile",0,"Lautaro, Araucania, Chile",-38.5084312,-72.4541343,"03/30/2020",NA
"264",264,"La Araucania","Loncoche",24739,24.3,"Loncoche, Region de La Araucania, Chile","Loncoche,+Region+de+La+Araucania,+Chile",0,"Loncoche, Araucania, Chile",-39.3681199,-72.6315127,"03/30/2020",NA
"265",265,"La Araucania","Lonquimay",11049,0,"Lonquimay, Region de La Araucania, Chile","Lonquimay,+Region+de+La+Araucania,+Chile",0,"Lonquimay, Araucania, Chile",-38.433333,-71.233333,"03/30/2020",NA
"266",266,"La Araucania","Los Sauces",7517,0,"Los Sauces, Region de La Araucania, Chile","Los+Sauces,+Region+de+La+Araucania,+Chile",0,"Los Sauces, Araucania, Chile",-37.9791031,-72.8344812,"03/30/2020",NA
"267",267,"La Araucania","Lumaco",10050,0,"Lumaco, Region de La Araucania, Chile","Lumaco,+Region+de+La+Araucania,+Chile",0,"Lumaco, Araucania, Chile",-38.1640201,-72.9031846,"03/30/2020",NA
"268",268,"La Araucania","Melipeuco",6265,0,"Melipeuco, Region de La Araucania, Chile","Melipeuco,+Region+de+La+Araucania,+Chile",0,"Melipeuco, Araucania, Chile",-38.852306,-71.6929428,"03/30/2020",NA
"269",269,"La Araucania","Nueva Imperial",33777,59.2,"Nueva Imperial, Region de La Araucania, Chile","Nueva+Imperial,+Region+de+La+Araucania,+Chile",0,"Nueva Imperial, Araucania, Chile",-38.7445218,-72.9482281,"03/30/2020",NA
"270",270,"La Araucania","Padre Las Casas",82110,59.7,"Padre Las Casas, Region de La Araucania, Chile","Padre+Las+Casas,+Region+de+La+Araucania,+Chile",0,"Padre Las Casas, Padre las Casas, Araucania, Chile",-38.7682352,-72.5989708,"03/30/2020",9
"271",271,"La Araucania","Perquenco",7223,27.7,"Perquenco, Region de La Araucania, Chile","Perquenco,+Region+de+La+Araucania,+Chile",0,"Perquenco, Araucania, Chile",-38.4161093,-72.3756218,"03/30/2020",NA
"272",272,"La Araucania","Pitrufquen",26096,46,"Pitrufquen, Region de La Araucania, Chile","Pitrufquen,+Region+de+La+Araucania,+Chile",0,"Pitrufquén, Araucania, Chile",-38.9833,-72.6417312,"03/30/2020",4
"273",273,"La Araucania","Pucon",29782,16.8,"Pucon, Region de La Araucania, Chile","Pucon,+Region+de+La+Araucania,+Chile",0,"Pucón, Pucon, Araucania, Chile",-39.2722541,-71.9776285,"03/30/2020",NA
"274",274,"La Araucania","Puren",12188,16.4,"Puren, Region de La Araucania, Chile","Puren,+Region+de+La+Araucania,+Chile",0,"Puren, Araucania, Chile",-38.0321278,-73.0711311,"03/30/2020",NA
"275",275,"La Araucania","Renaico",10833,9.2,"Renaico, Region de La Araucania, Chile","Renaico,+Region+de+La+Araucania,+Chile",0,"Renaico, Araucania, Chile",-37.6737875,-72.5892062,"03/30/2020",NA
"276",276,"La Araucania","Saavedra",12793,7.8,"Saavedra, Region de La Araucania, Chile","Saavedra,+Region+de+La+Araucania,+Chile",0,"Saavedra, Araucania, Chile",-38.7832999,-73.4,"03/30/2020",NA
"277",277,"La Araucania","Temuco",302931,134.4,"Temuco, Region de La Araucania, Chile","Temuco,+Region+de+La+Araucania,+Chile",0,"Temuco, Araucania, Chile",-38.7359018,-72.5903739,"03/30/2020",154
"278",278,"La Araucania","Teodoro Schmidt",15786,19,"Teodoro Schmidt, Region de La Araucania, Chile","Teodoro+Schmidt,+Region+de+La+Araucania,+Chile",0,"Teodoro Schmidt, Araucania, Chile",-38.9991844,-73.0942969,"03/30/2020",NA
"279",279,"La Araucania","Tolten",10055,69.6,"Tolten, Region de La Araucania, Chile","Tolten,+Region+de+La+Araucania,+Chile",0,"Nueva Toltén, Toltén, Araucania, Chile",-39.1769265,-73.1681231,"03/30/2020",NA
"280",280,"La Araucania","Traiguen",19314,0,"Traiguen, Region de La Araucania, Chile","Traiguen,+Region+de+La+Araucania,+Chile",0,"Traiguén, Traiguen, Araucania, Chile",-38.25,-72.6833,"03/30/2020",NA
"281",281,"La Araucania","Victoria",35467,42.3,"Victoria, Region de La Araucania, Chile","Victoria,+Region+de+La+Araucania,+Chile",0,"Victoria, Araucania, Chile",-38.2326538,-72.3515084,"03/30/2020",5
"282",282,"La Araucania","Vilcun",30766,65,"Vilcun, Region de La Araucania, Chile","Vilcun,+Region+de+La+Araucania,+Chile",0,"Vilcún, Vilcun, Araucania, Chile",-38.6677187,-72.2244406,"03/30/2020",4
"283",283,"La Araucania","Villarrica",59103,25.4,"Villarrica, Region de La Araucania, Chile","Villarrica,+Region+de+La+Araucania,+Chile",0,"Villarrica, Araucania, Chile",-39.2820124,-72.2307798,"03/30/2020",NA
"284",284,"Los Rios","Corral",5447,0,"Corral, Region de Los Rios, Chile","Corral,+Region+de+Los+Rios,+Chile",0,"Corral, Los Ríos, Chile",-39.8885744,-73.4315987,"03/30/2020",NA
"285",285,"Los Rios","Futrono",15261,32.8,"Futrono, Region de Los Rios, Chile","Futrono,+Region+de+Los+Rios,+Chile",0,"Futrono, Los Ríos, Chile",-40.1245411,-72.3808496,"03/30/2020",NA
"286",286,"Los Rios","La Union",39538,45.5,"La Union, Region de Los Rios, Chile","La+Union,+Region+de+Los+Rios,+Chile",0,"La Unión, Los Ríos, Chile",-40.2952749,-73.079328,"03/30/2020",NA
"287",287,"Los Rios","Lago Ranco",10292,19.4,"Lago Ranco, Region de Los Rios, Chile","Lago+Ranco,+Region+de+Los+Rios,+Chile",0,"Lago Ranco, Los Ríos, Chile",-40.3211603,-72.4822123,"03/30/2020",NA
"288",288,"Los Rios","Lanco",17652,11.3,"Lanco, Region de Los Rios, Chile","Lanco,+Region+de+Los+Rios,+Chile",0,"Lanco, Los Ríos, Chile",-39.4510195,-72.7796167,"03/30/2020",NA
"289",289,"Los Rios","Los Lagos",20518,0,"Los Lagos, Region de Los Rios, Chile","Los+Lagos,+Region+de+Los+Rios,+Chile",0,"Los Lagos, Los Ríos, Chile",-39.8624984,-72.8185588,"03/30/2020",NA
"290",290,"Los Rios","Mafil",7389,13.5,"Mafil, Region de Los Rios, Chile","Mafil,+Region+de+Los+Rios,+Chile",0,"Máfil, Los Ríos, Chile",-39.6648976,-72.9571573,"03/30/2020",NA
"291",291,"Los Rios","Mariquina",23250,34.4,"Mariquina, Region de Los Rios, Chile","Mariquina,+Region+de+Los+Rios,+Chile",0,"San José de la Mariquina, Mariquina, Los Ríos, Chile",-39.540279,-72.965652,"03/30/2020",NA
"292",292,"Los Rios","Paillaco",20798,4.8,"Paillaco, Region de Los Rios, Chile","Paillaco,+Region+de+Los+Rios,+Chile",0,"Paillaco, Los Ríos, Chile",-40.0684279,-72.8748414,"03/30/2020",NA
"293",293,"Los Rios","Panguipulli",35991,0,"Panguipulli, Region de Los Rios, Chile","Panguipulli,+Region+de+Los+Rios,+Chile",0,"Panguipulli, Los Ríos, Chile",-39.6415998,-72.3370089,"03/30/2020",NA
"294",294,"Los Rios","Rio Bueno",32925,15.2,"Rio Bueno, Region de Los Rios, Chile","Rio+Bueno,+Region+de+Los+Rios,+Chile",0,"Río Bueno, Rio Bueno, Los Ríos, Chile",-40.3313422,-72.9485366,"03/30/2020",NA
"295",295,"Los Rios","Valdivia",176774,40.7,"Valdivia, Region de Los Rios, Chile","Valdivia,+Region+de+Los+Rios,+Chile",0,"Valdivia, Los Ríos, Chile",-39.8335811,-73.215417,"03/30/2020",12
"296",296,"Los Lagos","Ancud",42458,4.7,"Ancud, Region de Los Lagos, Chile","Ancud,+Region+de+Los+Lagos,+Chile",0,"Ancud, Los Lagos, Chile",-41.8675003,-73.8276965,"03/30/2020",NA
"297",297,"Los Lagos","Calbuco",36744,13.6,"Calbuco, Region de Los Lagos, Chile","Calbuco,+Region+de+Los+Lagos,+Chile",0,"Calbuco, Los Lagos, Chile",-41.7720156,-73.1327093,"03/30/2020",4
"298",298,"Los Lagos","Castro",47607,12.6,"Castro, Region de Los Lagos, Chile","Castro,+Region+de+Los+Lagos,+Chile",0,"Castro, Los Lagos, Chile",-42.4801402,-73.7624137,"03/30/2020",NA
"299",299,"Los Lagos","Chaiten",5020,19.9,"Chaiten, Region de Los Lagos, Chile","Chaiten,+Region+de+Los+Lagos,+Chile",0,"Chaitén, Los Lagos, Chile",-43.2770851,-72.4202024,"03/30/2020",NA
"300",300,"Los Lagos","Chonchi",16013,0,"Chonchi, Region de Los Lagos, Chile","Chonchi,+Region+de+Los+Lagos,+Chile",0,"Chonchi, Los Lagos, Chile",-42.6232593,-73.7738499,"03/30/2020",NA
"301",301,"Los Lagos","Cochamo",4006,0,"Cochamo, Region de Los Lagos, Chile","Cochamo,+Region+de+Los+Lagos,+Chile",0,"Cochamó, Cochamo, Los Lagos, Chile",-41.4923218,-72.3084312,"03/30/2020",NA
"302",302,"Los Lagos","Curaco de Velez",4066,0,"Curaco de Velez, Region de Los Lagos, Chile","Curaco+de+Velez,+Region+de+Los+Lagos,+Chile",0,"Curaco de Vélez, Curaco de Velez, Los Lagos, Chile",-42.4405468,-73.6037069,"03/30/2020",NA
"303",303,"Los Lagos","Dalcahue",15069,0,"Dalcahue, Region de Los Lagos, Chile","Dalcahue,+Region+de+Los+Lagos,+Chile",0,"Dalcahue, Los Lagos, Chile",-42.377631,-73.651882,"03/30/2020",NA
"304",304,"Los Lagos","Fresia",12656,0,"Fresia, Region de Los Lagos, Chile","Fresia,+Region+de+Los+Lagos,+Chile",0,"Fresia, Los Lagos, Chile",-41.15,-73.4163343,"03/30/2020",NA
"305",305,"Los Lagos","Frutillar",20223,14.8,"Frutillar, Region de Los Lagos, Chile","Frutillar,+Region+de+Los+Lagos,+Chile",0,"Frutillar, Los Lagos, Chile",-41.112498,-73.0496952,"03/30/2020",NA
"306",306,"Los Lagos","Futaleufu",2806,0,"Futaleufu, Region de Los Lagos, Chile","Futaleufu,+Region+de+Los+Lagos,+Chile",0,"Futaleufú, Futaleufu, Los Lagos, Chile",-43.1833,-71.8667,"03/30/2020",NA
"307",307,"Los Lagos","Hualaihue",9525,31.5,"Hualaihue, Region de Los Lagos, Chile","Hualaihue,+Region+de+Los+Lagos,+Chile",0,"Hualaihué, Los Lagos, Chile",-42.1,-72.416667,"03/30/2020",NA
"308",308,"Los Lagos","Llanquihue",18621,0,"Llanquihue, Region de Los Lagos, Chile","Llanquihue,+Region+de+Los+Lagos,+Chile",0,"Llanquihue, Los Lagos, Chile",-41.2606312,-73.0078406,"03/30/2020",NA
"309",309,"Los Lagos","Los Muermos",17817,5.6,"Los Muermos, Region de Los Lagos, Chile","Los+Muermos,+Region+de+Los+Lagos,+Chile",0,"Los Muermos, Los Lagos, Chile",-41.3994093,-73.4649905,"03/30/2020",NA
"310",310,"Los Lagos","Maullin",14894,0,"Maullin, Region de Los Lagos, Chile","Maullin,+Region+de+Los+Lagos,+Chile",0,"Maullín, Los Lagos, Chile",-41.614807,-73.5990281,"03/30/2020",NA
"311",311,"Los Lagos","Osorno",173410,119.4,"Osorno, Region de Los Lagos, Chile","Osorno,+Region+de+Los+Lagos,+Chile",0,"Osorno, Los Lagos, Chile",-40.5761897,-73.1149469,"03/30/2020",66
"312",312,"Los Lagos","Palena",1827,0,"Palena, Region de Los Lagos, Chile","Palena,+Region+de+Los+Lagos,+Chile",0,"Palena, Los Lagos, Chile",-43.6167,-71.7999999,"03/30/2020",NA
"313",313,"Los Lagos","Puerto Montt",269398,13.7,"Puerto Montt, Region de Los Lagos, Chile","Puerto+Montt,+Region+de+Los+Lagos,+Chile",0,"Puerto Montt, Los Lagos, Chile",-41.468917,-72.9411364,"03/30/2020",34
"314",314,"Los Lagos","Puerto Octay",9192,10.9,"Puerto Octay, Region de Los Lagos, Chile","Puerto+Octay,+Region+de+Los+Lagos,+Chile",0,"Puerto Octay, Los Lagos, Chile",-40.9768373,-72.8819616,"03/30/2020",NA
"315",315,"Los Lagos","Puerto Varas",48620,6.2,"Puerto Varas, Region de Los Lagos, Chile","Puerto+Varas,+Region+de+Los+Lagos,+Chile",0,"Puerto Varas, Los Lagos, Chile",-41.3167,-72.9833,"03/30/2020",NA
"316",316,"Los Lagos","Puqueldon",4201,0,"Puqueldon, Region de Los Lagos, Chile","Puqueldon,+Region+de+Los+Lagos,+Chile",0,"Puqueldón, Puqueldon, Los Lagos, Chile",-42.6014407,-73.6714848,"03/30/2020",NA
"317",317,"Los Lagos","Purranque",21080,52.2,"Purranque, Region de Los Lagos, Chile","Purranque,+Region+de+Los+Lagos,+Chile",0,"Purranque, Los Lagos, Chile",-40.9084312,-73.1661093,"03/30/2020",NA
"318",318,"Los Lagos","Puyehue",11787,17,"Puyehue, Region de Los Lagos, Chile","Puyehue,+Region+de+Los+Lagos,+Chile",0,"Puyehue, Los Lagos, Chile",-40.6833658,-72.6015589,"03/30/2020",NA
"319",319,"Los Lagos","Queilen",5543,0,"Queilen, Region de Los Lagos, Chile","Queilen,+Region+de+Los+Lagos,+Chile",0,"Queilén, Los Lagos, Chile",-42.9,-73.4833,"03/30/2020",NA
"320",320,"Los Lagos","Quellon",29309,0,"Quellon, Region de Los Lagos, Chile","Quellon,+Region+de+Los+Lagos,+Chile",0,"Quellón, Los Lagos, Chile",-43.1169327,-73.6138821,"03/30/2020",NA
"321",321,"Los Lagos","Quemchi",8783,0,"Quemchi, Region de Los Lagos, Chile","Quemchi,+Region+de+Los+Lagos,+Chile",0,"Quemchi, Los Lagos, Chile",-42.1427625,-73.4743182,"03/30/2020",NA
"322",322,"Los Lagos","Quinchao",8298,12.1,"Quinchao, Region de Los Lagos, Chile","Quinchao,+Region+de+Los+Lagos,+Chile",0,"Quinchao, Los Lagos, Chile",-42.5381325,-73.4187729,"03/30/2020",NA
"323",323,"Los Lagos","Rio Negro",14275,7,"Rio Negro, Region de Los Lagos, Chile","Rio+Negro,+Region+de+Los+Lagos,+Chile",0,"Río Negro, Los Lagos, Chile",-40.7832999,-73.2333,"03/30/2020",NA
"324",324,"Los Lagos","San Juan de la Costa",7639,144,"San Juan de la Costa, Region de Los Lagos, Chile","San+Juan+de+la+Costa,+Region+de+Los+Lagos,+Chile",0,"San Juan de la Costa, Los Lagos, Chile",-40.516667,-73.4,"03/30/2020",NA
"325",325,"Los Lagos","San Pablo",10553,56.9,"San Pablo, Region de Los Lagos, Chile","San+Pablo,+Region+de+Los+Lagos,+Chile",0,"San Pablo, Los Lagos, Chile",-40.4124926,-73.0124926,"03/30/2020",NA
"326",326,"Aisen","Aisen",25002,16,"Aisen, Region de Aisen, Chile","Aisen,+Region+de+Aisen,+Chile",0,"Aysén, Chile",-45.9864001,-73.7669461,"03/30/2020",NA
"327",327,"Aisen","Chile Chico",5121,19.5,"Chile Chico, Region de Aisen, Chile","Chile+Chico,+Region+de+Aisen,+Chile",0,"Chile Chico, Aysén, Chile",-46.5409005,-71.7222795,"03/30/2020",NA
"328",328,"Aisen","Cisnes",5828,0,"Cisnes, Region de Aisen, Chile","Cisnes,+Region+de+Aisen,+Chile",0,"Cisnes, Aysén, Chile",-44.75,-72.7,"03/30/2020",NA
"329",329,"Aisen","Cochrane",3685,0,"Cochrane, Region de Aisen, Chile","Cochrane,+Region+de+Aisen,+Chile",0,"Cochrane, Aysén, Chile",-47.2535728,-72.5729823,"03/30/2020",NA
"330",330,"Aisen","Coyhaique",61210,1.6,"Coyhaique, Region de Aisen, Chile","Coyhaique,+Region+de+Aisen,+Chile",0,"Coyhaique, Aysén, Chile",-45.5712254,-72.068265,"03/30/2020",NA
"331",331,"Aisen","Guaitecas",1599,0,"Guaitecas, Region de Aisen, Chile","Guaitecas,+Region+de+Aisen,+Chile",0,"Guaitecas, Aysén, Chile",-43.883333,-73.75,"03/30/2020",NA
"332",332,"Aisen","Lago Verde",920,0,"Lago Verde, Region de Aisen, Chile","Lago+Verde,+Region+de+Aisen,+Chile",0,"Lago Verde, Aysén, Chile",-44.2385218,-71.851127,"03/30/2020",NA
"333",333,"Aisen","OHiggins",661,0,"OHiggins, Region de Aisen, Chile","OHiggins,+Region+de+Aisen,+Chile",0,"O'Higgins, O'higgins, Aysén, Chile",-48.4674467,-72.5591917,"03/30/2020",NA
"334",334,"Aisen","Rio Ibanez",2699,0,"Rio Ibanez, Region de Aisen, Chile","Rio+Ibanez,+Region+de+Aisen,+Chile",0,"Río Ibáñez, Aysén, Chile",-46.3,-71.933333,"03/30/2020",NA
"335",335,"Aisen","Tortel",572,174.8,"Tortel, Region de Aisen, Chile","Tortel,+Region+de+Aisen,+Chile",0,"Tortel, Aysén, Chile",-47.8015353,-73.5358494,"03/30/2020",NA
"336",336,"Magallanes y la Antartica","Antartica",137,0,"Antartica, Region de Magallanes y la Antartica, Chile","Antartica,+Region+de+Magallanes+y+la+Antartica,+Chile",0,"Antártica Chilena, Magallanes and Chilean Antarctica, Chile",-55.0991628,-69.2747744,"03/30/2020",NA
"337",337,"Magallanes y la Antartica","Cabo de Hornos",1983,554.7,"Cabo de Hornos, Region de Magallanes y la Antartica, Chile","Cabo+de+Hornos,+Region+de+Magallanes+y+la+Antartica,+Chile",0,"Cabo de Hornos, Magallanes and Chilean Antarctica, Chile",-54.933333,-67.616667,"03/30/2020",5
"338",338,"Magallanes y la Antartica","Laguna Blanca",264,0,"Laguna Blanca, Region de Magallanes y la Antartica, Chile","Laguna+Blanca,+Region+de+Magallanes+y+la+Antartica,+Chile",0,"Laguna Blanca, Natales, Magallanes and Chilean Antarctica, Chile",-52.25,-71.916667,"03/30/2020",NA
"339",339,"Magallanes y la Antartica","Natales",23782,21,"Natales, Region de Magallanes y la Antartica, Chile","Natales,+Region+de+Magallanes+y+la+Antartica,+Chile",0,"Natales, Magallanes and Chilean Antarctica, Chile",-51.733333,-72.516667,"03/30/2020",NA
"340",340,"Magallanes y la Antartica","Porvenir",7323,41,"Porvenir, Region de Magallanes y la Antartica, Chile","Porvenir,+Region+de+Magallanes+y+la+Antartica,+Chile",0,"Porvenir, Magallanes and Chilean Antarctica, Chile",-53.2957997,-70.3666545,"03/30/2020",NA
"341",341,"Magallanes y la Antartica","Primavera",694,0,"Primavera, Region de Magallanes y la Antartica, Chile","Primavera,+Region+de+Magallanes+y+la+Antartica,+Chile",0,"Primavera, Magallanes and Chilean Antarctica, Chile",-52.716667,-69.25,"03/30/2020",NA
"342",342,"Magallanes y la Antartica","Punta Arenas",141984,145.8,"Punta Arenas, Region de Magallanes y la Antartica, Chile","Punta+Arenas,+Region+de+Magallanes+y+la+Antartica,+Chile",0,"Punta Arenas, Magallanes and Chilean Antarctica, Chile",-53.1638329,-70.9170683,"03/30/2020",29
"343",343,"Magallanes y la Antartica","Rio Verde",211,0,"Rio Verde, Region de Magallanes y la Antartica, Chile","Rio+Verde,+Region+de+Magallanes+y+la+Antartica,+Chile",0,"Río Verde, Magallanes and Chilean Antarctica, Chile",-52.584679,-71.513733,"03/30/2020",NA
"344",344,"Magallanes y la Antartica","San Gregorio",681,0,"San Gregorio, Region de Magallanes y la Antartica, Chile","San+Gregorio,+Region+de+Magallanes+y+la+Antartica,+Chile",0,"San Gregorio, Magallanes and Chilean Antarctica, Chile",-52.315556,-69.688056,"03/30/2020",NA
"345",345,"Magallanes y la Antartica","Timaukel",282,0,"Timaukel, Region de Magallanes y la Antartica, Chile","Timaukel,+Region+de+Magallanes+y+la+Antartica,+Chile",0,"Timaukel, Magallanes and Chilean Antarctica, Chile",-54.294722,-69.1675,"03/30/2020",NA
"346",346,"Magallanes y la Antartica","Torres del Paine",1021,0,"Torres del Paine, Region de Magallanes y la Antartica, Chile","Torres+del+Paine,+Region+de+Magallanes+y+la+Antartica,+Chile",0,"Torres del Paine, Torres de Paine, Magallanes and Chilean Antarctica, Chile",-51.259167,-72.345,"03/30/2020",NA
"347",1,"Arica y Parinacota","Arica",247552,25.4,"Arica, Region de Arica y Parinacota, Chile","Arica,+Region+de+Arica+y+Parinacota,+Chile",0,"Arica, Arica y Parinacota, Chile",-18.4782534,-70.3125988,"04/01/2020",6
"348",2,"Arica y Parinacota","Camarones",1233,0,"Camarones, Region de Arica y Parinacota, Chile","Camarones,+Region+de+Arica+y+Parinacota,+Chile",0,"Camarones, Arica y Parinacota, Chile",-19.0111932,-69.8654656,"04/01/2020",NA
"349",3,"Arica y Parinacota","General Lagos",810,0,"General Lagos, Region de Arica y Parinacota, Chile","General+Lagos,+Region+de+Arica+y+Parinacota,+Chile",0,"General Lagos, Gral. Lagos, Arica y Parinacota, Chile",-17.866667,-69.583333,"04/01/2020",NA
"350",4,"Arica y Parinacota","Putre",2515,0,"Putre, Region de Arica y Parinacota, Chile","Putre,+Region+de+Arica+y+Parinacota,+Chile",0,"Putre, Arica y Parinacota, Chile",-18.1969907,-69.5597273,"04/01/2020",NA
"351",5,"Tarapaca","Alto Hospicio",129999,4.6,"Alto Hospicio, Region de Tarapaca, Chile","Alto+Hospicio,+Region+de+Tarapaca,+Chile",0,"Alto Hospicio, Tarapacá, Chile",-20.2686722,-70.1049169,"04/01/2020",NA
"352",6,"Tarapaca","Camina",1375,0,"Camina, Region de Tarapaca, Chile","Camina,+Region+de+Tarapaca,+Chile",0,"Camiña, Tarapacá, Chile",-19.3116281,-69.4298687,"04/01/2020",NA
"353",7,"Tarapaca","Colchane",1583,0,"Colchane, Region de Tarapaca, Chile","Colchane,+Region+de+Tarapaca,+Chile",0,"Colchane, Tarapacá, Chile",-19.2761393,-68.6388049,"04/01/2020",NA
"354",8,"Tarapaca","Huara",3000,0,"Huara, Region de Tarapaca, Chile","Huara,+Region+de+Tarapaca,+Chile",0,"Huara, Tarapacá, Chile",-19.9972461,-69.7718515,"04/01/2020",NA
"355",9,"Tarapaca","Iquique",223463,7.2,"Iquique, Region de Tarapaca, Chile","Iquique,+Region+de+Tarapaca,+Chile",0,"Iquique, Tarapacá, Chile",-20.2307033,-70.1356692,"04/01/2020",9
"356",10,"Tarapaca","Pica",5958,33.6,"Pica, Region de Tarapaca, Chile","Pica,+Region+de+Tarapaca,+Chile",0,"Pica, Tarapacá, Chile",-20.489483,-69.330511,"04/01/2020",NA
"357",11,"Tarapaca","Pozo Almonte",17395,11.5,"Pozo Almonte, Region de Tarapaca, Chile","Pozo+Almonte,+Region+de+Tarapaca,+Chile",0,"Pozo Almonte, Tarapacá, Chile",-20.2567092,-69.7860128,"04/01/2020",NA
"358",12,"Antofagasta","Antofagasta",425725,14.1,"Antofagasta, Region de Antofagasta, Chile","Antofagasta,+Region+de+Antofagasta,+Chile",0,"Antofagasta, Chile",-23.6509279,-70.3975022,"04/01/2020",32
"359",13,"Antofagasta","Calama",190336,4.2,"Calama, Region de Antofagasta, Chile","Calama,+Region+de+Antofagasta,+Chile",0,"Calama, Antofagasta, Chile",-22.4543923,-68.9293819,"04/01/2020",NA
"360",14,"Antofagasta","Maria Elena",6814,0,"Maria Elena, Region de Antofagasta, Chile","Maria+Elena,+Region+de+Antofagasta,+Chile",0,"María Elena, Maria Elena, Antofagasta, Chile",-22.166667,-69.416667,"04/01/2020",NA
"361",15,"Antofagasta","Mejillones",14776,13.5,"Mejillones, Region de Antofagasta, Chile","Mejillones,+Region+de+Antofagasta,+Chile",0,"Mejillones, Antofagasta, Chile",-23.0985013,-70.4455041,"04/01/2020",NA
"362",16,"Antofagasta","Ollague",287,0,"Ollague, Region de Antofagasta, Chile","Ollague,+Region+de+Antofagasta,+Chile",0,"Ollagüe, Ollague, Antofagasta, Chile",-21.2256917,-68.2547802,"04/01/2020",NA
"363",17,"Antofagasta","San Pedro de Atacama",10434,38.3,"San Pedro de Atacama, Region de Antofagasta, Chile","San+Pedro+de+Atacama,+Region+de+Antofagasta,+Chile",0,"San Pedro de Atacama, Antofagasta, Chile",-22.9087073,-68.1997156,"04/01/2020",NA
"364",18,"Antofagasta","Sierra Gorda",1746,0,"Sierra Gorda, Region de Antofagasta, Chile","Sierra+Gorda,+Region+de+Antofagasta,+Chile",0,"Sierra Gorda, Antofagasta, Chile",-22.8860128,-69.3171995,"04/01/2020",NA
"365",19,"Antofagasta","Taltal",13657,7.3,"Taltal, Region de Antofagasta, Chile","Taltal,+Region+de+Antofagasta,+Chile",0,"Taltal, Antofagasta, Chile",-25.406494,-70.4803027,"04/01/2020",NA
"366",20,"Antofagasta","Tocopilla",28079,7.1,"Tocopilla, Region de Antofagasta, Chile","Tocopilla,+Region+de+Antofagasta,+Chile",0,"Tocopilla, Antofagasta, Chile",-22.0857976,-70.1930064,"04/01/2020",NA
"367",21,"Atacama","Alto del Carmen",5729,0,"Alto del Carmen, Region de Atacama, Chile","Alto+del+Carmen,+Region+de+Atacama,+Chile",0,"Alto del Carmen, Atacama, Chile",-28.759444,-70.486667,"04/01/2020",NA
"368",22,"Atacama","Caldera",19426,0,"Caldera, Region de Atacama, Chile","Caldera,+Region+de+Atacama,+Chile",0,"Caldera, Atacama, Chile",-27.0667,-70.8178142,"04/01/2020",NA
"369",23,"Atacama","Chanaral",13164,0,"Chanaral, Region de Atacama, Chile","Chanaral,+Region+de+Atacama,+Chile",0,"Chañaral, Atacama, Chile",-26.3450046,-70.624193,"04/01/2020",NA
"370",24,"Atacama","Copiapo",171766,2.9,"Copiapo, Region de Atacama, Chile","Copiapo,+Region+de+Atacama,+Chile",0,"Copiapó, Copiapo, Atacama, Chile",-27.3665763,-70.3321587,"04/01/2020",NA
"371",25,"Atacama","Diego de Almagro",14358,7,"Diego de Almagro, Region de Atacama, Chile","Diego+de+Almagro,+Region+de+Atacama,+Chile",0,"Diego de Almagro, Atacama, Chile",-26.3902488,-70.0475302,"04/01/2020",NA
"372",26,"Atacama","Freirina",7681,0,"Freirina, Region de Atacama, Chile","Freirina,+Region+de+Atacama,+Chile",0,"Freirina, Atacama, Chile",-28.512094,-71.0795967,"04/01/2020",NA
"373",27,"Atacama","Huasco",11264,0,"Huasco, Region de Atacama, Chile","Huasco,+Region+de+Atacama,+Chile",0,"Huasco, Atacama, Chile",-28.4664,-71.2192,"04/01/2020",NA
"374",28,"Atacama","Tierra Amarilla",14312,14,"Tierra Amarilla, Region de Atacama, Chile","Tierra+Amarilla,+Region+de+Atacama,+Chile",0,"Tierra Amarilla, Atacama, Chile",-27.4671706,-70.2652196,"04/01/2020",NA
"375",29,"Atacama","Vallenar",57009,0,"Vallenar, Region de Atacama, Chile","Vallenar,+Region+de+Atacama,+Chile",0,"Vallenar, Atacama, Chile",-28.5757953,-70.7571009,"04/01/2020",NA
"376",30,"Coquimbo","Andacollo",11791,0,"Andacollo, Region de Coquimbo, Chile","Andacollo,+Region+de+Coquimbo,+Chile",0,"Andacollo, Coquimbo, Chile",-30.2357949,-71.0828027,"04/01/2020",NA
"377",31,"Coquimbo","Canela",9546,0,"Canela, Region de Coquimbo, Chile","Canela,+Region+de+Coquimbo,+Chile",0,"Canela, Coquimbo, Chile",-31.398889,-71.456111,"04/01/2020",NA
"378",32,"Coquimbo","Combarbala",13884,0,"Combarbala, Region de Coquimbo, Chile","Combarbala,+Region+de+Coquimbo,+Chile",0,"Combarbalá, Combarbala, Coquimbo, Chile",-31.1790967,-71.0050958,"04/01/2020",NA
"379",33,"Coquimbo","Coquimbo",256735,7.4,"Coquimbo, Region de Coquimbo, Chile","Coquimbo,+Region+de+Coquimbo,+Chile",0,"Coquimbo, Chile",-29.9590009,-71.3389183,"04/01/2020",19
"380",34,"Coquimbo","Illapel",32801,36.6,"Illapel, Region de Coquimbo, Chile","Illapel,+Region+de+Coquimbo,+Chile",0,"Illapel, Coquimbo, Chile",-31.6308,-71.1653,"04/01/2020",NA
"381",35,"Coquimbo","La Higuera",4450,0,"La Higuera, Region de Coquimbo, Chile","La+Higuera,+Region+de+Coquimbo,+Chile",0,"La Higuera, Coquimbo, Chile",-29.5119534,-71.2000844,"04/01/2020",NA
"382",36,"Coquimbo","La Serena",249656,4.8,"La Serena, Region de Coquimbo, Chile","La+Serena,+Region+de+Coquimbo,+Chile",0,"La Serena, Coquimbo, Chile",-29.9026691,-71.2519374,"04/01/2020",NA
"383",37,"Coquimbo","Los Vilos",23374,4.3,"Los Vilos, Region de Coquimbo, Chile","Los+Vilos,+Region+de+Coquimbo,+Chile",0,"Los Vilos, Coquimbo, Chile",-31.9121865,-71.5112017,"04/01/2020",NA
"384",38,"Coquimbo","Monte Patria",32527,0,"Monte Patria, Region de Coquimbo, Chile","Monte+Patria,+Region+de+Coquimbo,+Chile",0,"Monte Patria, Coquimbo, Chile",-30.6978944,-70.9586889,"04/01/2020",NA
"385",39,"Coquimbo","Ovalle",121269,5.8,"Ovalle, Region de Coquimbo, Chile","Ovalle,+Region+de+Coquimbo,+Chile",0,"Ovalle, Coquimbo, Chile",-30.604304,-71.1969882,"04/01/2020",4
"386",40,"Coquimbo","Paiguano",4675,0,"Paiguano, Region de Coquimbo, Chile","Paiguano,+Region+de+Coquimbo,+Chile",0,"Paiguano, Coquimbo, Chile",-30.0276898,-70.5178142,"04/01/2020",NA
"387",41,"Coquimbo","Punitaqui",12165,0,"Punitaqui, Region de Coquimbo, Chile","Punitaqui,+Region+de+Coquimbo,+Chile",0,"Punitaqui, Coquimbo, Chile",-30.8277456,-71.2603821,"04/01/2020",NA
"388",42,"Coquimbo","Rio Hurtado",4372,22.9,"Rio Hurtado, Region de Coquimbo, Chile","Rio+Hurtado,+Region+de+Coquimbo,+Chile",0,"Río Hurtado, Coquimbo, Chile",-30.266667,-70.666667,"04/01/2020",NA
"389",43,"Coquimbo","Salamanca",29110,13.7,"Salamanca, Region de Coquimbo, Chile","Salamanca,+Region+de+Coquimbo,+Chile",0,"Salamanca, Coquimbo, Chile",-31.782493,-70.9607105,"04/01/2020",NA
"390",44,"Coquimbo","Vicuna",29741,0,"Vicuna, Region de Coquimbo, Chile","Vicuna,+Region+de+Coquimbo,+Chile",0,"Vicuña, Coquimbo, Chile",-30.0319,-70.7081,"04/01/2020",NA
"391",45,"Valparaiso","Algarrobo",15174,52.7,"Algarrobo, Region de Valparaiso, Chile","Algarrobo,+Region+de+Valparaiso,+Chile",0,"Algarrobo, Valparaíso, Chile",-33.3647762,-71.6705534,"04/01/2020",7
"392",46,"Valparaiso","Cabildo",20663,0,"Cabildo, Region de Valparaiso, Chile","Cabildo,+Region+de+Valparaiso,+Chile",0,"Cabildo, Valparaíso, Chile",-32.4258064,-71.0661621,"04/01/2020",NA
"393",47,"Valparaiso","Calera",53591,16.8,"Calera, Region de Valparaiso, Chile","Calera,+Region+de+Valparaiso,+Chile",0,"La Calera, Calera, Valparaíso, Chile",-32.7873428,-71.20732,"04/01/2020",6
"394",48,"Valparaiso","Calle Larga",16482,6.1,"Calle Larga, Region de Valparaiso, Chile","Calle+Larga,+Region+de+Valparaiso,+Chile",0,"Calle Larga, Valparaíso, Chile",-32.857493,-70.6258069,"04/01/2020",NA
"395",49,"Valparaiso","Cartagena",25357,0,"Cartagena, Region de Valparaiso, Chile","Cartagena,+Region+de+Valparaiso,+Chile",0,"Cartagena, Valparaíso, Chile",-33.5482466,-71.6045745,"04/01/2020",NA
"396",50,"Valparaiso","Casablanca",29170,6.9,"Casablanca, Region de Valparaiso, Chile","Casablanca,+Region+de+Valparaiso,+Chile",0,"Casablanca, Valparaíso, Chile",-33.3182828,-71.4070899,"04/01/2020",NA
"397",51,"Valparaiso","Catemu",15213,0,"Catemu, Region de Valparaiso, Chile","Catemu,+Region+de+Valparaiso,+Chile",0,"Catemu, Calle Larga, Valparaíso, Chile",-32.875133,-70.648829,"04/01/2020",NA
"398",52,"Valparaiso","Concon",45889,6.5,"Concon, Region de Valparaiso, Chile","Concon,+Region+de+Valparaiso,+Chile",0,"Concón, Valparaíso, Chile",-32.9299468,-71.5186065,"04/01/2020",NA
"399",53,"Valparaiso","El Quisco",17742,5.6,"El Quisco, Region de Valparaiso, Chile","El+Quisco,+Region+de+Valparaiso,+Chile",0,"El Quisco, Valparaíso, Chile",-33.398596,-71.6981538,"04/01/2020",NA
"400",54,"Valparaiso","El Tabo",14338,13.9,"El Tabo, Region de Valparaiso, Chile","El+Tabo,+Region+de+Valparaiso,+Chile",0,"El Tabo, Valparaíso, Chile",-33.4557162,-71.6669341,"04/01/2020",NA
"401",55,"Valparaiso","Hijuelas",19099,0,"Hijuelas, Region de Valparaiso, Chile","Hijuelas,+Region+de+Valparaiso,+Chile",0,"Hijuelas, Valparaíso, Chile",-32.7986559,-71.1463438,"04/01/2020",NA
"402",56,"Valparaiso","Isla de Pascua",8277,60.4,"Isla de Pascua, Region de Valparaiso, Chile","Isla+de+Pascua,+Region+de+Valparaiso,+Chile",0,"Easter Island, Valparaíso, Chile",-27.112723,-109.3496865,"04/01/2020",5
"403",57,"Valparaiso","Juan Fernandez",1033,0,"Juan Fernandez, Region de Valparaiso, Chile","Juan+Fernandez,+Region+de+Valparaiso,+Chile",0,"Juan Fernández Islands, Valparaíso, Chile",-30.0447611,-79.8036832,"04/01/2020",NA
"404",58,"Valparaiso","La Cruz",25321,7.9,"La Cruz, Region de Valparaiso, Chile","La+Cruz,+Region+de+Valparaiso,+Chile",0,"La Cruz, Valparaíso, Chile",-32.8258069,-71.2273055,"04/01/2020",NA
"405",59,"Valparaiso","La Ligua",37739,5.3,"La Ligua, Region de Valparaiso, Chile","La+Ligua,+Region+de+Valparaiso,+Chile",0,"La Ligua, Valparaíso, Chile",-32.4499018,-71.2325958,"04/01/2020",NA
"406",60,"Valparaiso","Limache",49931,10,"Limache, Region de Valparaiso, Chile","Limache,+Region+de+Valparaiso,+Chile",0,"Limache, Valparaíso, Chile",-33.0012816,-71.268144,"04/01/2020",NA
"407",61,"Valparaiso","Llaillay",26533,7.5,"Llaillay, Region de Valparaiso, Chile","Llaillay,+Region+de+Valparaiso,+Chile",0,"Llay-Llay, Llayllay, Valparaíso, Chile",-32.8409806,-70.956166,"04/01/2020",NA
"408",62,"Valparaiso","Los Andes",68093,8.8,"Los Andes, Region de Valparaiso, Chile","Los+Andes,+Region+de+Valparaiso,+Chile",0,"Los Andes, Valparaíso, Chile",-32.8337995,-70.5972179,"04/01/2020",NA
"409",63,"Valparaiso","Nogales",23490,0,"Nogales, Region de Valparaiso, Chile","Nogales,+Region+de+Valparaiso,+Chile",0,"Nogales, Valparaíso, Chile",-32.7333,-71.2042115,"04/01/2020",NA
"410",64,"Valparaiso","Olmue",19266,0,"Olmue, Region de Valparaiso, Chile","Olmue,+Region+de+Valparaiso,+Chile",0,"Olmué, Olmue, Valparaíso, Chile",-32.9958297,-71.1812984,"04/01/2020",NA
"411",65,"Valparaiso","Panquehue",7633,0,"Panquehue, Region de Valparaiso, Chile","Panquehue,+Region+de+Valparaiso,+Chile",0,"Panquehue, Valparaíso, Chile",-32.7670303,-70.8333,"04/01/2020",NA
"412",66,"Valparaiso","Papudo",6201,0,"Papudo, Region de Valparaiso, Chile","Papudo,+Region+de+Valparaiso,+Chile",0,"Papudo, Valparaíso, Chile",-32.5072087,-71.4485013,"04/01/2020",NA
"413",67,"Valparaiso","Petorca",10558,37.9,"Petorca, Region de Valparaiso, Chile","Petorca,+Region+de+Valparaiso,+Chile",0,"Petorca, Valparaíso, Chile",-32.25,-70.9333,"04/01/2020",NA
"414",68,"Valparaiso","Puchuncavi",20071,0,"Puchuncavi, Region de Valparaiso, Chile","Puchuncavi,+Region+de+Valparaiso,+Chile",0,"Puchuncaví, Puchuncavi, Valparaíso, Chile",-32.722005,-71.4117004,"04/01/2020",NA
"415",69,"Valparaiso","Putaendo",17645,5.7,"Putaendo, Region de Valparaiso, Chile","Putaendo,+Region+de+Valparaiso,+Chile",0,"Putaendo, Valparaíso, Chile",-32.628461,-70.7177434,"04/01/2020",NA
"416",70,"Valparaiso","Quillota",97572,13.3,"Quillota, Region de Valparaiso, Chile","Quillota,+Region+de+Valparaiso,+Chile",0,"Quillota, Valparaíso, Chile",-32.8803027,-71.2497156,"04/01/2020",7
"417",71,"Valparaiso","Quilpue",167085,9,"Quilpue, Region de Valparaiso, Chile","Quilpue,+Region+de+Valparaiso,+Chile",0,"Quilpué, Quilpue, Valparaíso, Chile",-33.0482707,-71.4408752,"04/01/2020",10
"418",72,"Valparaiso","Quintero",36135,8.3,"Quintero, Region de Valparaiso, Chile","Quintero,+Region+de+Valparaiso,+Chile",0,"Quintero, Valparaíso, Chile",-32.7723101,-71.5333,"04/01/2020",NA
"419",73,"Valparaiso","Rinconada",11263,8.9,"Rinconada, Region de Valparaiso, Chile","Rinconada,+Region+de+Valparaiso,+Chile",0,"Rinconada, Valparaíso, Chile",-32.8352416,-70.7010367,"04/01/2020",NA
"420",74,"Valparaiso","San Antonio",96761,9.3,"San Antonio, Region de Valparaiso, Chile","San+Antonio,+Region+de+Valparaiso,+Chile",0,"San Antonio, Valparaíso, Chile",-33.5922807,-71.6055123,"04/01/2020",4
"421",75,"Valparaiso","San Esteban",20643,0,"San Esteban, Region de Valparaiso, Chile","San+Esteban,+Region+de+Valparaiso,+Chile",0,"San Esteban, Valparaíso, Chile",-32.8004995,-70.5798032,"04/01/2020",NA
"422",76,"Valparaiso","San Felipe",83494,7.2,"San Felipe, Region de Valparaiso, Chile","San+Felipe,+Region+de+Valparaiso,+Chile",0,"San Felipe, Valparaíso, Chile",-32.75,-70.7208115,"04/01/2020",NA
"423",77,"Valparaiso","Santa Maria",16367,12.2,"Santa Maria, Region de Valparaiso, Chile","Santa+Maria,+Region+de+Valparaiso,+Chile",0,"Santa María, Santa Maria, Valparaíso, Chile",-32.7470027,-70.6587073,"04/01/2020",NA
"424",78,"Valparaiso","Santo Domingo",11934,41.9,"Santo Domingo, Region de Valparaiso, Chile","Santo+Domingo,+Region+de+Valparaiso,+Chile",0,"Santo Domingo, Valparaíso, Chile",-33.635833,-71.628056,"04/01/2020",NA
"425",79,"Valparaiso","Valparaiso",315732,11.4,"Valparaiso, Region de Valparaiso, Chile","Valparaiso,+Region+de+Valparaiso,+Chile",0,"Valparaíso, Chile",-33.047238,-71.6126885,"04/01/2020",26
"426",80,"Valparaiso","Villa Alemana",139310,8.6,"Villa Alemana, Region de Valparaiso, Chile","Villa+Alemana,+Region+de+Valparaiso,+Chile",0,"Villa Alemana, Valparaíso, Chile",-33.0495006,-71.374603,"04/01/2020",8
"427",81,"Valparaiso","Vina del Mar",361371,18.3,"Vina del Mar, Region de Valparaiso, Chile","Vina+del+Mar,+Region+de+Valparaiso,+Chile",0,"Viña del Mar, Valparaíso, Chile",-33.0153481,-71.5500276,"04/01/2020",38
"428",82,"Valparaiso","Zapallar",7994,0,"Zapallar, Region de Valparaiso, Chile","Zapallar,+Region+de+Valparaiso,+Chile",0,"Zapallar, Valparaíso, Chile",-32.5538059,-71.4581359,"04/01/2020",0
"429",83,"Metropolitana","Alhue",7405,0,"Alhue, Region de Metropolitana, Chile","Alhue,+Region+de+Metropolitana,+Chile",0,"Alhué, Santiago Metropolitan Region, Chile",-34.0264691,-71.1002881,"04/01/2020",NA
"430",84,"Metropolitana","Buin",109641,18.2,"Buin, Region de Metropolitana, Chile","Buin,+Region+de+Metropolitana,+Chile",0,"Buin, Santiago Metropolitan Region, Chile",-33.7313897,-70.742431,"04/01/2020",8
"431",85,"Metropolitana","Calera de Tango",28525,28,"Calera de Tango, Region de Metropolitana, Chile","Calera+de+Tango,+Region+de+Metropolitana,+Chile",0,"Calera de Tango, Región Metropolitana, Chile",-33.6291031,-70.7686968,"04/01/2020",7
"432",86,"Metropolitana","Cerrillos",88956,12.4,"Cerrillos, Region de Metropolitana, Chile","Cerrillos,+Region+de+Metropolitana,+Chile",0,"Cerrillos, Chile, Santiago Metropolitan Region, Chile",-33.5010107,-70.7098735,"04/01/2020",4
"433",87,"Metropolitana","Cerro Navia",142465,25.3,"Cerro Navia, Region de Metropolitana, Chile","Cerro+Navia,+Region+de+Metropolitana,+Chile",0,"Cerro Navia, Santiago Metropolitan Region, Chile",-33.4218958,-70.7404531,"04/01/2020",21
"434",88,"Metropolitana","Colina",180353,34.4,"Colina, Region de Metropolitana, Chile","Colina,+Region+de+Metropolitana,+Chile",0,"Colina, Santiago Metropolitan Region, Chile",-33.2045451,-70.6759654,"04/01/2020",39
"435",89,"Metropolitana","Conchali",139195,27.3,"Conchali, Region de Metropolitana, Chile","Conchali,+Region+de+Metropolitana,+Chile",0,"Conchalí, Conchali, Santiago Metropolitan Region, Chile",-33.3846893,-70.6800213,"04/01/2020",18
"436",90,"Metropolitana","Curacavi",36430,24.7,"Curacavi, Region de Metropolitana, Chile","Curacavi,+Region+de+Metropolitana,+Chile",0,"Curacaví, Curacavi, Santiago Metropolitan Region, Chile",-33.4009037,-71.1267263,"04/01/2020",5
"437",91,"Metropolitana","El Bosque",172000,26.7,"El Bosque, Region de Metropolitana, Chile","El+Bosque,+Region+de+Metropolitana,+Chile",0,"El Bosque, Santiago Metropolitan Region, Chile",-33.5589761,-70.6787503,"04/01/2020",28
"438",92,"Metropolitana","El Monte",40014,17.5,"El Monte, Region de Metropolitana, Chile","El+Monte,+Region+de+Metropolitana,+Chile",0,"El Monte, Santiago Metropolitan Region, Chile",-33.6815281,-70.9853968,"04/01/2020",NA
"439",93,"Metropolitana","Estacion Central",206792,19.8,"Estacion Central, Region de Metropolitana, Chile","Estacion+Central,+Region+de+Metropolitana,+Chile",0,"Santiago, Estación Central, Santiago Metropolitan Region, Chile",-33.4619178,-70.6985099,"04/01/2020",22
"440",94,"Metropolitana","Huechuraba",112528,31.1,"Huechuraba, Region de Metropolitana, Chile","Huechuraba,+Region+de+Metropolitana,+Chile",0,"Huechuraba, Santiago Metropolitan Region, Chile",-33.3742128,-70.6367425,"04/01/2020",19
"441",95,"Metropolitana","Independencia",142065,21.8,"Independencia, Region de Metropolitana, Chile","Independencia,+Region+de+Metropolitana,+Chile",0,"Independencia, Chile, Santiago Metropolitan Region, Chile",-33.4155974,-70.6642603,"04/01/2020",17
"442",96,"Metropolitana","Isla de Maipo",40171,17.4,"Isla de Maipo, Region de Metropolitana, Chile","Isla+de+Maipo,+Region+de+Metropolitana,+Chile",0,"Isla de Maipo, Santiago Metropolitan Region, Chile",-33.7464562,-70.9,"04/01/2020",NA
"443",97,"Metropolitana","La Cisterna",100434,25.9,"La Cisterna, Region de Metropolitana, Chile","La+Cisterna,+Region+de+Metropolitana,+Chile",0,"La Cisterna, Santiago Metropolitan Region, Chile",-33.5264495,-70.6613511,"04/01/2020",12
"444",98,"Metropolitana","La Florida",402433,25.6,"La Florida, Region de Metropolitana, Chile","La+Florida,+Region+de+Metropolitana,+Chile",0,"La Florida, Santiago Metropolitan Region, Chile",-33.5226882,-70.5987142,"04/01/2020",58
"445",99,"Metropolitana","La Granja",122557,21.2,"La Granja, Region de Metropolitana, Chile","La+Granja,+Region+de+Metropolitana,+Chile",0,"La Granja, Santiago Metropolitan Region, Chile",-33.5377931,-70.620678,"04/01/2020",8
"446",100,"Metropolitana","La Pintana",189335,13.2,"La Pintana, Region de Metropolitana, Chile","La+Pintana,+Region+de+Metropolitana,+Chile",0,"La Pintana, Santiago Metropolitan Region, Chile",-33.5855661,-70.6285838,"04/01/2020",10
"447",101,"Metropolitana","La Reina",100252,43.9,"La Reina, Region de Metropolitana, Chile","La+Reina,+Region+de+Metropolitana,+Chile",0,"La Reina, Santiago Metropolitan Region, Chile",-33.4411269,-70.5340591,"04/01/2020",26
"448",102,"Metropolitana","Lampa",126898,14.2,"Lampa, Region de Metropolitana, Chile","Lampa,+Region+de+Metropolitana,+Chile",0,"Lampa, Santiago Metropolitan Region, Chile",-33.2827093,-70.879328,"04/01/2020",10
"449",103,"Metropolitana","Las Condes",330759,80.4,"Las Condes, Region de Metropolitana, Chile","Las+Condes,+Region+de+Metropolitana,+Chile",0,"Las Condes, Santiago Metropolitan Region, Chile",-33.4079424,-70.5451063,"04/01/2020",208
"450",104,"Metropolitana","Lo Barnechea",124076,84.6,"Lo Barnechea, Region de Metropolitana, Chile","Lo+Barnechea,+Region+de+Metropolitana,+Chile",0,"Lo Barnechea, Santiago Metropolitan Region, Chile",-33.352669,-70.518517,"04/01/2020",78
"451",105,"Metropolitana","Lo Espejo",103865,22.1,"Lo Espejo, Region de Metropolitana, Chile","Lo+Espejo,+Region+de+Metropolitana,+Chile",0,"Lo Espejo, San Bernardo, Santiago Metropolitan Region, Chile",-33.5220498,-70.690565,"04/01/2020",7
"452",106,"Metropolitana","Lo Prado",104403,30.7,"Lo Prado, Region de Metropolitana, Chile","Lo+Prado,+Region+de+Metropolitana,+Chile",0,"Lo Prado, Santiago Metropolitan Region, Chile",-33.4442688,-70.7233493,"04/01/2020",18
"453",107,"Metropolitana","Macul",134635,27.5,"Macul, Region de Metropolitana, Chile","Macul,+Region+de+Metropolitana,+Chile",0,"Macul, Santiago Metropolitan Region, Chile",-33.4851471,-70.5992005,"04/01/2020",15
"454",108,"Metropolitana","Maipu",578605,18.3,"Maipu, Region de Metropolitana, Chile","Maipu,+Region+de+Metropolitana,+Chile",0,"Maipú, Maipu, Santiago Metropolitan Region, Chile",-33.5105866,-70.7572607,"04/01/2020",55
"455",109,"Metropolitana","Maria Pinto",14926,0,"Maria Pinto, Region de Metropolitana, Chile","Maria+Pinto,+Region+de+Metropolitana,+Chile",0,"María Pinto, Maria Pinto, Santiago Metropolitan Region, Chile",-33.5176692,-71.1239221,"04/01/2020",NA
"456",110,"Metropolitana","Melipilla",141612,8.5,"Melipilla, Region de Metropolitana, Chile","Melipilla,+Region+de+Metropolitana,+Chile",0,"Melipilla, Santiago Metropolitan Region, Chile",-33.6858668,-71.2180485,"04/01/2020",8
"457",111,"Metropolitana","Nunoa",250192,47.2,"Nunoa, Region de Metropolitana, Chile","Nunoa,+Region+de+Metropolitana,+Chile",0,"Ñuñoa, Santiago Metropolitan Region, Chile",-33.4566678,-70.5978415,"04/01/2020",84
"458",112,"Metropolitana","Padre Hurtado",74188,24.3,"Padre Hurtado, Region de Metropolitana, Chile","Padre+Hurtado,+Region+de+Metropolitana,+Chile",0,"Padre Hurtado, Santiago Metropolitan Region, Chile",-33.5695362,-70.8156717,"04/01/2020",11
"459",113,"Metropolitana","Paine",82766,3.6,"Paine, Region de Metropolitana, Chile","Paine,+Region+de+Metropolitana,+Chile",0,"Paine, Santiago Metropolitan Region, Chile",-33.8816181,-70.7366442,"04/01/2020",NA
"460",114,"Metropolitana","Pedro Aguirre Cerda",107803,17.6,"Pedro Aguirre Cerda, Region de Metropolitana, Chile","Pedro+Aguirre+Cerda,+Region+de+Metropolitana,+Chile",0,"Pedro Aguirre Cerda, Santiago Metropolitan Region, Chile",-33.4940901,-70.6765026,"04/01/2020",13
"461",115,"Metropolitana","Penaflor",101058,17.8,"Penaflor, Region de Metropolitana, Chile","Penaflor,+Region+de+Metropolitana,+Chile",0,"Peñaflor, Santiago Metropolitan Region, Chile",-33.6060255,-70.8781837,"04/01/2020",13
"462",116,"Metropolitana","Penalolen",266798,29.2,"Penalolen, Region de Metropolitana, Chile","Penalolen,+Region+de+Metropolitana,+Chile",0,"Peñalolén, Santiago Metropolitan Region, Chile",-33.4719116,-70.5627854,"04/01/2020",46
"463",117,"Metropolitana","Pirque",30433,13.1,"Pirque, Region de Metropolitana, Chile","Pirque,+Region+de+Metropolitana,+Chile",0,"Pirque, Santiago Metropolitan Region, Chile",-33.6874736,-70.5883812,"04/01/2020",NA
"464",118,"Metropolitana","Providencia",157749,72.9,"Providencia, Region de Metropolitana, Chile","Providencia,+Region+de+Metropolitana,+Chile",0,"Providencia, Santiago Metropolitan Region, Chile",-33.4314474,-70.6093325,"04/01/2020",87
"465",119,"Metropolitana","Pudahuel",253139,20.5,"Pudahuel, Region de Metropolitana, Chile","Pudahuel,+Region+de+Metropolitana,+Chile",0,"Pudahuel, Santiago Metropolitan Region, Chile",-33.4421135,-70.7640644,"04/01/2020",25
"466",120,"Metropolitana","Puente Alto",645909,25.7,"Puente Alto, Region de Metropolitana, Chile","Puente+Alto,+Region+de+Metropolitana,+Chile",0,"Puente Alto, Santiago Metropolitan Region, Chile",-33.6186082,-70.5906057,"04/01/2020",58
"467",121,"Metropolitana","Quilicura",254694,22.4,"Quilicura, Region de Metropolitana, Chile","Quilicura,+Region+de+Metropolitana,+Chile",0,"Quilicura, Santiago Metropolitan Region, Chile",-33.3576747,-70.7292718,"04/01/2020",29
"468",122,"Metropolitana","Quinta Normal",136368,41.8,"Quinta Normal, Region de Metropolitana, Chile","Quinta+Normal,+Region+de+Metropolitana,+Chile",0,"Quinta Normal, Santiago Metropolitan Region, Chile",-33.4317378,-70.6923917,"04/01/2020",25
"469",123,"Metropolitana","Recoleta",190075,27.4,"Recoleta, Region de Metropolitana, Chile","Recoleta,+Region+de+Metropolitana,+Chile",0,"Recoleta, Santiago Metropolitan Region, Chile",-33.4061916,-70.6336176,"04/01/2020",23
"470",124,"Metropolitana","Renca",160847,13.7,"Renca, Region de Metropolitana, Chile","Renca,+Region+de+Metropolitana,+Chile",0,"Renca, Santiago Metropolitan Region, Chile",-33.4063601,-70.7279965,"04/01/2020",14
"471",125,"Metropolitana","San Bernardo",334836,23.6,"San Bernardo, Region de Metropolitana, Chile","San+Bernardo,+Region+de+Metropolitana,+Chile",0,"San Bernardo, Santiago Metropolitan Region, Chile",-33.5854485,-70.6987361,"04/01/2020",41
"472",126,"Metropolitana","San Joaquin",103485,40.6,"San Joaquin, Region de Metropolitana, Chile","San+Joaquin,+Region+de+Metropolitana,+Chile",0,"San Joaquín, Santiago Metropolitan Region, Chile",-33.496202,-70.6283361,"04/01/2020",24
"473",127,"Metropolitana","San Jose de Maipo",18644,16.1,"San Jose de Maipo, Region de Metropolitana, Chile","San+Jose+de+Maipo,+Region+de+Metropolitana,+Chile",0,"San José de Maipo, San Jose de Maipo, Santiago Metropolitan Region, Chile",-33.643169,-70.345207,"04/01/2020",NA
"474",128,"Metropolitana","San Miguel",133059,42.1,"San Miguel, Region de Metropolitana, Chile","San+Miguel,+Region+de+Metropolitana,+Chile",0,"San Miguel, Pedro Aguirre Cerda, Santiago Metropolitan Region, Chile",-33.4923545,-70.651797,"04/01/2020",32
"475",129,"Metropolitana","San Pedro",11953,0,"San Pedro, Region de Metropolitana, Chile","San+Pedro,+Region+de+Metropolitana,+Chile",0,"San Pedro, Santiago Metropolitan Region, Chile",-33.8950912,-71.4563779,"04/01/2020",NA
"476",130,"Metropolitana","San Ramon",86510,13.9,"San Ramon, Region de Metropolitana, Chile","San+Ramon,+Region+de+Metropolitana,+Chile",0,"San Ramón, Santiago Metropolitan Region, Chile",-33.5510207,-70.6464256,"04/01/2020",6
"477",131,"Metropolitana","Santiago",503147,53.9,"Santiago, Region de Metropolitana, Chile","Santiago,+Region+de+Metropolitana,+Chile",0,"Santiago Metropolitan Region, Chile",-33.4375545,-70.6504896,"04/01/2020",156
